business_id,name,city,state,latitude,longitude,stars,review_count,is_open,attributes,category,hours
B_hU-QEkt5G98pYGdfIrsg,Nobu Tei,Solon,OH,41.396544,-81.465911,3.5,109,1,"HasTV,RestaurantsReservations,BusinessAcceptsCreditCards,RestaurantsGoodForGroups,RestaurantsTakeOut,GoodForKids,RestaurantsTableService","Asian Fusion, Thai, Japanese, Sushi Bars, Restaurants, Steakhouses","{'Monday': '16:0-21:30', 'Tuesday': '16:0-21:30', 'Wednesday': '16:0-21:30', 'Thursday': '16:0-21:30', 'Friday': '16:0-22:30', 'Saturday': '12:0-22:30', 'Sunday': '12:0-21:0'}"
JhxI7oS_jsFnq34dDubugQ,Ferris Steak House,Cleveland,OH,41.4806039,-81.74444840000002,3.5,8,0,"RestaurantsReservations,BusinessAcceptsCreditCards,RestaurantsTakeOut,OutdoorSeating","Steakhouses, Restaurants","{'Monday': '17:0-22:0', 'Tuesday': '17:0-22:0', 'Wednesday': '17:0-22:0', 'Thursday': '17:0-22:0', 'Friday': '17:0-22:0', 'Saturday': '17:0-22:0'}"
lpxj6LFir23Ds6swW8a6fg,Grandview Saloon,Pittsburgh,PA,40.4381076,-80.0185368,3.0,172,1,"BikeParking,RestaurantsGoodForGroups,RestaurantsReservations,GoodForKids,BusinessAcceptsCreditCards,HappyHour,HasTV,OutdoorSeating,RestaurantsTakeOut","Restaurants, Steakhouses, Seafood, American (Traditional), Wine Bars, Caterers, Lounges, Event Planning & Services, Nightlife, Bars","{'Monday': '11:30-21:0', 'Tuesday': '11:30-21:0', 'Wednesday': '11:30-21:0', 'Thursday': '11:30-21:0', 'Friday': '11:30-22:0', 'Saturday': '11:30-22:0', 'Sunday': '11:30-21:0'}"
FZmvSCnBcVXiX08lmGhakA,DeBlaze Grill,Bridgeville,PA,40.3584643919,-80.1125019681,4.5,47,1,"RestaurantsDelivery,GoodForKids,RestaurantsTakeOut,HasTV,HappyHour,BusinessAcceptsCreditCards,Caters,RestaurantsGoodForGroups","Steakhouses, Italian, American (Traditional), Restaurants","{'Monday': '0:0-0:0', 'Tuesday': '11:30-22:0', 'Wednesday': '11:30-22:0', 'Thursday': '11:30-22:0', 'Friday': '11:30-0:0', 'Saturday': '11:30-0:0'}"
2vzUzl31fFLHKhM6px-rbg,Mariner's Inn,Madison,WI,43.1489218,-89.4070057,3.5,79,1,"RestaurantsGoodForGroups,RestaurantsReservations,HasTV,WheelchairAccessible,BusinessAcceptsCreditCards,OutdoorSeating,BikeParking,Caters,RestaurantsTakeOut,HappyHour,RestaurantsTableService","Breakfast & Brunch, Event Planning & Services, American (Traditional), Steakhouses, Venues & Event Spaces, Restaurants, Seafood","{'Monday': '0:0-0:0', 'Tuesday': '17:0-21:0', 'Wednesday': '17:0-21:0', 'Thursday': '17:0-21:0', 'Friday': '16:30-22:0', 'Saturday': '16:30-22:0', 'Sunday': '16:30-21:0'}"
J4fxdRNWmqckOHTPJocWEw,ML Tavern,Moreland Hills,OH,41.4547126,-81.4437063,4.0,71,1,"HasTV,RestaurantsGoodForGroups,BusinessAcceptsCreditCards,RestaurantsTableService,RestaurantsTakeOut,HappyHour,OutdoorSeating,RestaurantsReservations","Steakhouses, Beer, Wine & Spirits, Food, Nightlife, Restaurants, Bars","{'Monday': '0:0-0:0', 'Tuesday': '16:0-0:0', 'Wednesday': '16:30-21:30', 'Thursday': '16:30-21:30', 'Friday': '16:30-22:0', 'Saturday': '16:30-22:0'}"
qELIf4gzE_vlteu7pO7TZg,Atria's Restaurant,Pittsburgh,PA,40.4470921252,-80.00404638100001,3.0,94,0,"GoodForKids,BusinessAcceptsCreditCards,BikeParking,RestaurantsTakeOut,RestaurantsGoodForGroups,Caters,OutdoorSeating,HasTV,RestaurantsReservations","Caterers, American (New), Nightlife, Restaurants, Bars, Sandwiches, Seafood, Italian, Event Planning & Services, American (Traditional), Salad, Steakhouses, Burgers","{'Monday': '11:0-22:0', 'Tuesday': '11:0-22:0', 'Wednesday': '11:0-22:0', 'Thursday': '11:0-22:0', 'Friday': '11:0-23:0', 'Saturday': '11:0-23:0', 'Sunday': '10:0-20:0'}"
Es0JayHVN_XPn1q5yFtn6g,Pittsburgh Rare,Pittsburgh,PA,40.43469010000001,-80.006389,2.5,9,0,"RestaurantsReservations,RestaurantsGoodForGroups,BusinessAcceptsCreditCards,HappyHour","Steakhouses, Restaurants",
szGbmw_vq3kVU4SfK1x6Sw,Ruths Chris Steak House,Pittsburgh,PA,40.439454,-80.003658,4.0,146,1,"RestaurantsReservations,BusinessAcceptsCreditCards,RestaurantsTakeOut,RestaurantsGoodForGroups,RestaurantsTableService,HasTV,WheelchairAccessible,HappyHour","Restaurants, Steakhouses","{'Monday': '17:0-22:0', 'Tuesday': '17:0-22:0', 'Wednesday': '17:0-22:0', 'Thursday': '17:0-22:0', 'Friday': '17:0-23:0', 'Saturday': '17:0-23:0', 'Sunday': '17:0-21:0'}"
CNklj3fFmwXL13AyvjfV5w,Ann's Chophouse,Bethel Park,PA,40.327443,-80.034616,3.5,35,1,"HasTV,RestaurantsReservations,BusinessAcceptsCreditCards,GoodForKids,RestaurantsGoodForGroups,BikeParking,RestaurantsTakeOut","Steakhouses, Restaurants","{'Monday': '11:0-2:0', 'Tuesday': '11:0-2:0', 'Wednesday': '11:0-2:0', 'Thursday': '11:0-2:0', 'Friday': '11:0-2:0', 'Saturday': '11:0-2:0', 'Sunday': '11:0-2:0'}"
d6VYQbeTZ_WdD8Uuhh35dg,Tempest Oyster Bar,Madison,WI,43.073930018599995,-89.3796241524,4.0,280,1,"RestaurantsReservations,BusinessAcceptsCreditCards,OutdoorSeating,BikeParking,RestaurantsGoodForGroups,RestaurantsTableService,HasTV,HappyHour,CoatCheck","Steakhouses, Restaurants, Bars, Seafood, Nightlife","{'Monday': '16:0-22:0', 'Tuesday': '16:0-22:0', 'Wednesday': '16:0-22:0', 'Thursday': '16:0-22:0', 'Friday': '16:0-0:0', 'Saturday': '16:0-0:0', 'Sunday': '16:0-22:0'}"
K8iNH0OEhS7vZLVyuO1v4A,Wasabi Japanese Steak House,Akron,OH,41.1305113,-81.6543561,3.5,127,1,"HasTV,RestaurantsTakeOut,RestaurantsReservations,GoodForKids,RestaurantsTableService,BusinessAcceptsCreditCards,RestaurantsGoodForGroups","Steakhouses, Restaurants, Japanese","{'Monday': '16:30-22:30', 'Tuesday': '16:30-22:30', 'Wednesday': '16:30-22:30', 'Thursday': '16:30-22:30', 'Friday': '16:30-23:0', 'Saturday': '14:0-23:0', 'Sunday': '12:0-21:0'}"
HOgLMfPB11zz7BsYkFSz0g,Baba's Supper Club,Sun Prairie,WI,43.1832054,-89.21409659999998,2.0,4,0,"BusinessAcceptsCreditCards,HasTV,GoodForKids,RestaurantsTakeOut,RestaurantsGoodForGroups,RestaurantsReservations","American (Traditional), Restaurants, Steakhouses",
vv769u0PvdQhO5IIBFAcwg,Saga Hibachi Steakhouse & Sushi Bar,Bethel Park,PA,40.3418115205,-80.0552053647,3.0,79,0,"HasTV,GoodForKids,OutdoorSeating,RestaurantsGoodForGroups,RestaurantsTakeOut,RestaurantsReservations,RestaurantsTableService,BusinessAcceptsCreditCards,HappyHour","Restaurants, Sushi Bars, Steakhouses, Japanese","{'Monday': '11:0-22:0', 'Tuesday': '11:0-22:0', 'Wednesday': '11:0-22:0', 'Thursday': '11:0-22:0', 'Friday': '11:0-23:0', 'Saturday': '12:0-23:0', 'Sunday': '12:0-22:0'}"
ZspvlO5Dvtd517YhVLJJ_A,Tomo Sushi & Hibachi,Cleveland,OH,41.499484,-81.70045390000001,3.0,239,1,"RestaurantsGoodForGroups,BusinessAcceptsCreditCards,RestaurantsTakeOut,OutdoorSeating,RestaurantsDelivery,HasTV,RestaurantsReservations,BikeParking","Sushi Bars, Restaurants, Japanese, Steakhouses","{'Monday': '11:0-23:0', 'Tuesday': '11:0-23:0', 'Wednesday': '11:0-23:0', 'Thursday': '11:0-23:0', 'Friday': '11:0-2:30', 'Saturday': '11:0-2:30', 'Sunday': '11:0-23:0'}"
gWmrOXOmciuTnNi4P0wWDQ,Hyde Park Prime Steakhouse,Akron,OH,41.1367374795,-81.6465704509,4.0,57,1,"RestaurantsTakeOut,RestaurantsGoodForGroups,RestaurantsReservations,BusinessAcceptsCreditCards,Caters,HappyHour,HasTV","Steakhouses, Salad, Seafood, Barbeque, Restaurants, Desserts, Japanese, Food","{'Monday': '0:0-0:0', 'Tuesday': '16:0-0:0', 'Wednesday': '16:30-21:30', 'Thursday': '16:30-21:30', 'Friday': '16:30-22:0', 'Saturday': '16:30-22:0', 'Sunday': '16:30-20:0'}"
Nz0MchMpTVYmJbijeBSVew,Outback Steakhouse,Cuyahoga Falls,OH,41.11783370000001,-81.47342590000002,3.0,34,0,"RestaurantsTakeOut,RestaurantsGoodForGroups,RestaurantsDelivery,BusinessAcceptsCreditCards,HasTV,RestaurantsReservations,BikeParking,GoodForKids","Restaurants, Steakhouses","{'Monday': '11:0-22:0', 'Tuesday': '11:0-22:0', 'Wednesday': '11:0-22:0', 'Thursday': '11:0-22:0', 'Friday': '11:0-23:0', 'Saturday': '11:0-23:0', 'Sunday': '11:0-21:0'}"
VGxJbglGlx-a7Gdc55Q6jQ,Katana,Pittsburgh,PA,40.3899009,-80.04066170000002,3.0,149,1,"RestaurantsTakeOut,RestaurantsDelivery,BusinessAcceptsCreditCards,Caters,RestaurantsGoodForGroups,RestaurantsReservations,BikeParking,GoodForKids,HasTV","Restaurants, Japanese, Sushi Bars, Chinese, Steakhouses","{'Monday': '16:30-22:0', 'Tuesday': '16:30-22:0', 'Thursday': '16:30-22:0', 'Friday': '16:30-23:0', 'Saturday': '16:30-23:0', 'Sunday': '12:0-21:30'}"
1MrJJ9tyNyfFrxaNZ67xFg,Silk Road Gourmet Chinese,Pittsburgh,PA,40.3591070736,-80.00208978180001,4.0,135,1,"RestaurantsReservations,RestaurantsDelivery,HasTV,GoodForKids,RestaurantsTakeOut,RestaurantsGoodForGroups,BikeParking,BusinessAcceptsCreditCards,RestaurantsTableService","Restaurants, Sushi Bars, American (New), Japanese, Chinese, Steakhouses","{'Monday': '11:0-22:0', 'Tuesday': '11:0-22:0', 'Wednesday': '11:0-22:0', 'Thursday': '11:0-22:0', 'Friday': '11:0-22:30', 'Saturday': '11:0-22:30', 'Sunday': '12:0-21:0'}"
795wIi2-x9RfndhVo0byaA,Steel City Steak House,Monroeville,PA,40.3981061,-79.7690515,2.5,34,0,"GoodForKids,BikeParking,BusinessAcceptsCreditCards,RestaurantsReservations,HasTV,Caters,DriveThru,RestaurantsTakeOut,RestaurantsGoodForGroups","Sandwiches, Burgers, Restaurants, Steakhouses","{'Monday': '11:0-0:0', 'Tuesday': '11:0-0:0', 'Wednesday': '11:0-0:0', 'Thursday': '11:0-2:0', 'Friday': '11:0-2:0', 'Saturday': '7:0-2:0', 'Sunday': '7:0-2:0'}"
DMRaPL6SnA_RX7yY6rprhQ,Steak On a Stone,Copley,OH,41.1312495,-81.65343859999999,2.5,26,0,"RestaurantsReservations,BusinessAcceptsCreditCards,RestaurantsGoodForGroups","Restaurants, Steakhouses","{'Monday': '11:30-22:0', 'Tuesday': '11:30-22:0', 'Wednesday': '11:30-22:0', 'Thursday': '11:30-22:0', 'Friday': '11:30-23:0', 'Saturday': '11:30-23:0', 'Sunday': '11:30-21:0'}"
zLnmmB9jiKg-A2Lggs64-A,CK's Steak House,Painesville,OH,41.6709035,-81.24172159999998,3.0,20,1,"BusinessAcceptsCreditCards,RestaurantsTakeOut,RestaurantsGoodForGroups,RestaurantsReservations,Caters,HasTV","Restaurants, Steakhouses","{'Monday': '6:30-23:0', 'Tuesday': '6:30-23:0', 'Wednesday': '6:30-23:0', 'Thursday': '6:30-23:0', 'Friday': '6:30-1:0', 'Saturday': '6:30-1:0', 'Sunday': '6:30-22:0'}"
7ddnq3YQSKguGK15etqGLQ,Ditka's Restaurant - Wexford,Wexford,PA,40.642662,-80.067024,3.0,25,0,"BusinessAcceptsCreditCards,WheelchairAccessible,RestaurantsTakeOut,RestaurantsReservations,Caters,RestaurantsGoodForGroups,HasTV,RestaurantsTableService,BikeParking,HappyHour,OutdoorSeating","Seafood, Restaurants, Steakhouses, Burgers, Salad, American (Traditional)","{'Monday': '16:0-21:0', 'Tuesday': '16:0-21:0', 'Wednesday': '16:0-21:0', 'Thursday': '16:0-21:0', 'Friday': '16:0-22:0', 'Saturday': '16:0-22:0', 'Sunday': '16:0-21:0'}"
eF2jf-E5ktRQIh_4_-Jxsg,Cannon's Chop House,Canonsburg,PA,40.2750230347,-80.1665849354,3.5,107,1,"RestaurantsReservations,HasTV,OutdoorSeating,BusinessAcceptsCreditCards,RestaurantsGoodForGroups,GoodForKids,HappyHour,BikeParking,RestaurantsTakeOut,RestaurantsTableService","Steakhouses, Restaurants, Cajun/Creole","{'Monday': '11:0-22:0', 'Tuesday': '11:0-22:0', 'Wednesday': '11:0-22:0', 'Thursday': '11:0-22:0', 'Friday': '11:0-23:0', 'Saturday': '11:0-23:0', 'Sunday': '10:0-22:0'}"
dh1S06LtJqMRRpGcePn5Cg,Zach's Place,Berea,OH,41.3714222,-81.8685955,3.0,18,1,"BusinessAcceptsCreditCards,BikeParking,RestaurantsGoodForGroups,Caters,RestaurantsTakeOut,RestaurantsReservations,GoodForKids,HasTV","Steakhouses, Seafood, Bars, Nightlife, Restaurants, Sports Bars, Sandwiches","{'Monday': '11:0-2:30', 'Tuesday': '11:0-2:30', 'Wednesday': '11:0-2:30', 'Thursday': '11:0-2:30', 'Friday': '11:0-2:30', 'Saturday': '11:0-2:30', 'Sunday': '11:0-2:30'}"
r_QcMIgY2zxdcV40kK_rxw,Applebee's Grill + Bar,Champaign,IL,40.142141,-88.258452,2.0,44,1,"GoodForKids,RestaurantsGoodForGroups,RestaurantsTakeOut,BusinessAcceptsCreditCards,HasTV,RestaurantsTableService,BikeParking,RestaurantsDelivery,HappyHour","American (Traditional), Bars, Sports Bars, Burgers, Steakhouses, Nightlife, Restaurants","{'Monday': '11:0-23:0', 'Tuesday': '11:0-23:0', 'Wednesday': '11:0-23:0', 'Thursday': '11:0-23:0', 'Friday': '11:0-0:0', 'Saturday': '11:0-0:0', 'Sunday': '11:0-23:0'}"
ewEDv_q-K0fV0FepkHB8sA,Tornado Steak House,Madison,WI,43.07243,-89.38434000000002,4.0,537,1,"BusinessAcceptsCreditCards,OutdoorSeating,RestaurantsReservations,RestaurantsGoodForGroups,BikeParking,CoatCheck,HappyHour,ByAppointmentOnly","Italian, Burgers, Nightlife, Bars, Steakhouses, Restaurants, Seafood","{'Monday': '17:0-1:0', 'Tuesday': '17:0-1:0', 'Wednesday': '17:0-1:0', 'Thursday': '17:0-1:0', 'Friday': '17:0-1:0', 'Saturday': '17:0-1:0', 'Sunday': '17:0-1:0'}"
sg9-uGQZCWGQYWYArxYbOQ,Issho Ni,Willoughby,OH,41.6234778,-81.4442931,4.0,9,1,"WheelchairAccessible,RestaurantsTableService,RestaurantsReservations,BusinessAcceptsCreditCards,HasTV,BYOB,Caters,RestaurantsTakeOut","Steakhouses, Food, Restaurants, Ramen, Japanese, Desserts, Sushi Bars","{'Monday': '11:0-21:30', 'Tuesday': '11:0-21:30', 'Wednesday': '11:0-21:30', 'Thursday': '11:0-21:30', 'Friday': '11:0-22:0', 'Saturday': '12:0-22:0', 'Sunday': '12:0-21:0'}"
h-hXxl_9f-QdTYUIx0ar8A,Outback Steakhouse,Independence,OH,41.397420272199994,-81.6505957894,2.5,67,1,"RestaurantsDelivery,RestaurantsTakeOut,RestaurantsGoodForGroups,HasTV,BusinessAcceptsCreditCards,GoodForKids,RestaurantsReservations,BikeParking,Caters","Steakhouses, Restaurants","{'Monday': '11:0-22:0', 'Tuesday': '11:0-22:0', 'Wednesday': '11:0-22:0', 'Thursday': '11:0-22:0', 'Friday': '11:0-23:0', 'Saturday': '11:0-23:0', 'Sunday': '11:0-21:0'}"
mZYKqiK-9fzifbFbeEbP1w,McCormick & Schmick's Seafood & Steaks,Pittsburgh,PA,40.428137705,-79.96648064899999,3.0,168,1,"BusinessAcceptsCreditCards,RestaurantsReservations,Caters,BikeParking,HasTV,RestaurantsGoodForGroups,RestaurantsTakeOut,WheelchairAccessible,RestaurantsTableService,HappyHour","Seafood, Restaurants, American (Traditional), Steakhouses","{'Monday': '11:30-21:30', 'Tuesday': '11:30-21:30', 'Wednesday': '11:30-21:30', 'Thursday': '11:30-21:30', 'Friday': '11:30-22:0', 'Saturday': '11:30-22:0', 'Sunday': '11:30-21:30'}"
4ZalERS8GVHK_1ULa86rMQ,Rex's Innkeeper,Waunakee,WI,43.19438,-89.4624497,3.0,38,1,"BusinessAcceptsCreditCards,HasTV,RestaurantsGoodForGroups,RestaurantsTakeOut,RestaurantsReservations,Caters,GoodForKids,HappyHour","Steakhouses, Seafood, American (Traditional), Restaurants","{'Monday': '16:30-21:0', 'Tuesday': '16:30-21:0', 'Wednesday': '16:30-21:0', 'Thursday': '16:30-21:0', 'Friday': '16:30-22:0', 'Saturday': '16:30-22:0', 'Sunday': '16:0-21:0'}"
B0JdEQoQjr9oka-_YyGZ8g,Outback Steakhouse,Pittsburgh,PA,40.5759448527,-80.0262372225,2.5,92,1,"BusinessAcceptsCreditCards,HasTV,RestaurantsGoodForGroups,GoodForKids,RestaurantsDelivery,RestaurantsTakeOut,Caters","Restaurants, Steakhouses","{'Monday': '11:0-22:0', 'Tuesday': '11:0-22:0', 'Wednesday': '11:0-22:0', 'Thursday': '11:0-22:0', 'Friday': '11:0-23:0', 'Saturday': '11:0-23:0', 'Sunday': '11:0-21:30'}"
5Gj8twqkHxMunpNJLn5Hjw,Arashi Japan,Westlake,OH,41.464644,-81.951747,3.0,128,1,"BikeParking,RestaurantsTakeOut,RestaurantsGoodForGroups,RestaurantsReservations,HasTV,RestaurantsTableService,BusinessAcceptsCreditCards,GoodForKids,HappyHour","Steakhouses, Sushi Bars, Japanese, Restaurants","{'Monday': '16:30-22:0', 'Tuesday': '16:30-22:0', 'Wednesday': '16:30-22:0', 'Thursday': '16:30-22:0', 'Friday': '16:30-23:0', 'Saturday': '11:0-23:0', 'Sunday': '12:0-21:0'}"
xRC2O1i4xQMqqrkKSn7uRw,The Unicorn Restaurant & Pub,Grafton,OH,41.28497,-82.0645052,4.5,21,1,"RestaurantsGoodForGroups,BusinessAcceptsCreditCards,GoodForKids,RestaurantsTakeOut,RestaurantsReservations,HappyHour,HasTV,RestaurantsTableService","Steakhouses, Seafood, Irish Pub, Nightlife, Bars, Restaurants","{'Tuesday': '16:0-23:0', 'Wednesday': '16:0-23:0', 'Thursday': '16:0-23:0', 'Friday': '16:0-23:0', 'Saturday': '16:0-23:0'}"
7JOo6MO-bJMhfXobJG7SRQ,Timber Lodge,Medina,OH,41.198189,-81.841278,3.5,210,1,"GoodForKids,BusinessAcceptsCreditCards,OutdoorSeating,RestaurantsTakeOut,Caters,RestaurantsReservations,RestaurantsGoodForGroups,BikeParking,HasTV","Steakhouses, Seafood, Restaurants, American (Traditional)","{'Monday': '0:0-0:0', 'Tuesday': '16:0-22:0', 'Wednesday': '16:0-22:0', 'Thursday': '16:0-22:0', 'Friday': '16:0-23:0', 'Saturday': '16:0-23:0', 'Sunday': '11:0-21:0'}"
I6ocB-D9EAlk3Y9xGll1qA,Taverne Of Richfield,Richfield,OH,41.2400486,-81.6554434,3.5,61,0,"RestaurantsReservations,BusinessAcceptsCreditCards,Caters,RestaurantsTakeOut,BikeParking,RestaurantsGoodForGroups,HappyHour,HasTV,RestaurantsDelivery,OutdoorSeating,GoodForKids","Arts & Entertainment, Jazz & Blues, Music Venues, Bars, Nightlife, Wine Bars, American (Traditional), Seafood, Steakhouses, Venues & Event Spaces, American (New), Restaurants, Event Planning & Services","{'Monday': '11:0-21:30', 'Tuesday': '11:0-21:30', 'Wednesday': '11:0-21:30', 'Thursday': '11:0-21:30', 'Friday': '11:0-22:0', 'Saturday': '16:0-22:0', 'Sunday': '11:0-21:30'}"
ZalWvpZ4Tv4AMHtHG0DwrQ,Square 22 Restaurant and Bar,Strongsville,OH,41.3159941,-81.8347744,4.0,132,1,"RestaurantsGoodForGroups,RestaurantsTableService,BusinessAcceptsCreditCards,OutdoorSeating,HasTV,RestaurantsReservations,Caters,WheelchairAccessible,HappyHour","Restaurants, Cocktail Bars, Lounges, American (Traditional), Steakhouses, American (New), Seafood, Nightlife, Bars","{'Monday': '0:0-0:0', 'Tuesday': '15:0-22:0', 'Wednesday': '15:0-22:0', 'Thursday': '15:0-22:0', 'Friday': '15:0-23:0', 'Saturday': '11:30-23:0', 'Sunday': '12:30-17:0'}"
CmIEkQZ87j1IGm9qWYqUdQ,Toko Japanese Steak House,Streetsboro,OH,41.24022520000001,-81.33744899999998,4.0,116,1,"RestaurantsReservations,RestaurantsDelivery,RestaurantsTakeOut,GoodForKids,HasTV,RestaurantsGoodForGroups,BusinessAcceptsCreditCards,RestaurantsTableService","Food, Sushi Bars, Steakhouses, Japanese, Restaurants","{'Monday': '16:30-22:0', 'Tuesday': '16:30-22:0', 'Wednesday': '16:30-22:0', 'Thursday': '16:30-22:0', 'Friday': '11:0-22:30', 'Saturday': '11:0-22:30', 'Sunday': '12:0-21:30'}"
VDn6tM_Q_08CVuNHSUH4Lw,Lakewood Village Tavern,Lakewood,OH,41.476796,-81.786777,3.5,14,1,"BikeParking,BusinessAcceptsCreditCards,RestaurantsGoodForGroups,HasTV,RestaurantsTakeOut,RestaurantsDelivery,HappyHour","Burgers, Steakhouses, Restaurants, Bars, Dive Bars, Karaoke, Nightlife","{'Monday': '11:0-2:30', 'Tuesday': '11:0-2:30', 'Wednesday': '11:0-2:30', 'Thursday': '11:0-2:30', 'Friday': '11:0-2:30', 'Saturday': '11:0-2:30', 'Sunday': '11:0-2:30'}"
iattM1CQ8JfFm2L7-lDifQ,Atami Japan,Irwin,PA,40.331215596199996,-79.743302594,4.0,29,1,"RestaurantsGoodForGroups,HasTV,GoodForKids,RestaurantsReservations,BusinessAcceptsCreditCards,RestaurantsTakeOut,RestaurantsDelivery,HappyHour,RestaurantsTableService","Cocktail Bars, Steakhouses, Nightlife, Sushi Bars, Restaurants, Bars, Japanese","{'Monday': '16:30-21:30', 'Tuesday': '16:30-21:30', 'Wednesday': '16:30-21:30', 'Thursday': '16:30-21:30', 'Friday': '11:0-22:30', 'Saturday': '11:0-22:30', 'Sunday': '12:0-21:30'}"
Qz4JzvZ_0_2TGTWPTE7XSQ,Steak on a Stone,Willoughby,OH,41.62813,-81.427725,2.5,20,0,"RestaurantsGoodForGroups,BusinessAcceptsCreditCards,Caters,RestaurantsReservations,GoodForKids,RestaurantsTakeOut","Steakhouses, Restaurants",
x4eptNxzj43ihrk0nZB_OA,Montana Mike's,Urbana,IL,40.128228,-88.199861,3.0,12,0,"RestaurantsReservations,HasTV,GoodForKids,RestaurantsTakeOut,BusinessAcceptsCreditCards,RestaurantsGoodForGroups","Restaurants, Steakhouses","{'Monday': '11:0-22:0', 'Tuesday': '11:0-22:0', 'Wednesday': '11:0-22:0', 'Thursday': '11:0-22:0', 'Friday': '11:0-23:0', 'Saturday': '11:0-23:0', 'Sunday': '11:0-22:0'}"
XTumKkL8Ns3StEvW1nwcow,Fazio's Restaurant,Olmsted Falls,OH,41.3748099,-81.902066,3.0,7,0,"RestaurantsTakeOut,RestaurantsGoodForGroups,GoodForKids,BusinessAcceptsCreditCards,HasTV,Caters","Steakhouses, Restaurants, Seafood, American (New)","{'Monday': '7:0-22:0', 'Tuesday': '7:0-22:0', 'Wednesday': '7:0-22:0', 'Thursday': '7:0-22:0', 'Friday': '7:0-23:0', 'Saturday': '7:0-23:0', 'Sunday': '8:0-15:0'}"
QQMHSov0KBlBSfb7PXOcXg,Sapporo Japanese Steakhouse,Pittsburgh,PA,40.4400036,-80.09091059999999,4.0,27,1,"HasTV,RestaurantsTakeOut,BusinessAcceptsCreditCards,Caters,RestaurantsGoodForGroups,GoodForKids,RestaurantsReservations","Japanese, Restaurants, Steakhouses, Seafood","{'Monday': '16:30-22:0', 'Tuesday': '16:30-22:0', 'Wednesday': '16:30-22:0', 'Thursday': '16:30-22:0', 'Friday': '16:30-22:30', 'Saturday': '16:30-22:30', 'Sunday': '15:0-21:0'}"
JzITUte597nI4RXQK9nERQ,Yokoso Japanese Steakhouse,Homestead,PA,40.4090939,-79.91581579999998,3.0,200,1,"RestaurantsTakeOut,BikeParking,RestaurantsGoodForGroups,RestaurantsReservations,GoodForKids,HasTV,BusinessAcceptsCreditCards,OutdoorSeating,RestaurantsTableService,HappyHour","Japanese, Steakhouses, Sushi Bars, Restaurants","{'Monday': '16:0-22:0', 'Tuesday': '16:0-22:0', 'Wednesday': '16:0-22:0', 'Thursday': '16:0-22:0', 'Friday': '16:0-23:0', 'Saturday': '15:0-23:0', 'Sunday': '15:0-22:0'}"
L95ppCbcWAt4LUWrCiEvPg,The Capital Grille,Pittsburgh,PA,40.4407195879,-80.0000391542,4.0,317,1,"BusinessAcceptsCreditCards,RestaurantsReservations,RestaurantsGoodForGroups,RestaurantsTableService,Caters,WheelchairAccessible,CoatCheck,HappyHour","Restaurants, Seafood, Steakhouses, American (Traditional), Nightlife, Bars, Wine Bars","{'Monday': '11:0-22:0', 'Tuesday': '11:0-22:0', 'Wednesday': '11:0-22:0', 'Thursday': '11:0-21:0', 'Friday': '11:0-23:0', 'Saturday': '16:0-23:0', 'Sunday': '16:0-21:0'}"
gqRfs-c6gx_tcIx63Fx4OQ,Harry Buffalo,Painesville,OH,41.6871191,-81.2899719,2.5,53,1,"RestaurantsTakeOut,BusinessAcceptsCreditCards,RestaurantsDelivery,HasTV,RestaurantsTableService,GoodForKids,RestaurantsGoodForGroups,OutdoorSeating,WheelchairAccessible,BikeParking,HappyHour","Burgers, Nightlife, Pubs, Chicken Wings, American (Traditional), Steakhouses, Bars, Restaurants","{'Monday': '11:0-2:0', 'Tuesday': '11:0-2:0', 'Wednesday': '11:0-2:0', 'Thursday': '11:0-2:0', 'Friday': '11:0-2:0', 'Saturday': '11:0-2:0', 'Sunday': '11:0-2:0'}"
MgScNgEPoNExpCOwcgQR3g,LongHorn Steakhouse,Rocky River,OH,41.4614963334,-81.8521149967,3.0,63,1,"RestaurantsTakeOut,GoodForKids,BusinessAcceptsCreditCards,HasTV,RestaurantsGoodForGroups,RestaurantsTableService,BikeParking","Steakhouses, Restaurants, Barbeque, American (Traditional)","{'Monday': '11:0-22:0', 'Tuesday': '11:0-22:0', 'Wednesday': '11:0-22:0', 'Thursday': '11:0-22:0', 'Friday': '11:0-23:0', 'Saturday': '11:0-23:0', 'Sunday': '11:0-22:0'}"
jSnkD2SpD-jcJjBjmxqHpw,Hibachi Japanese Steakhouse,Highland Heights,OH,41.5391563,-81.4529642,2.5,56,1,"RestaurantsGoodForGroups,RestaurantsTakeOut,BusinessAcceptsCreditCards,RestaurantsReservations,GoodForKids,HasTV","Restaurants, Sushi Bars, Japanese, Steakhouses","{'Monday': '11:30-22:0', 'Tuesday': '11:30-22:0', 'Wednesday': '11:30-22:0', 'Thursday': '11:30-22:0', 'Friday': '11:30-23:0', 'Saturday': '12:30-23:0', 'Sunday': '12:30-22:0'}"
YKGb41Io_6mRsm4Bee7aOQ,Firebirds Wood Fired Grill,Beachwood,OH,41.453669,-81.48619599999998,3.5,109,1,"RestaurantsTableService,RestaurantsGoodForGroups,Caters,RestaurantsReservations,RestaurantsTakeOut,HasTV,OutdoorSeating,HappyHour,WheelchairAccessible,BusinessAcceptsCreditCards","Wine Bars, Restaurants, Steakhouses, Nightlife, Bars, Seafood","{'Monday': '11:0-22:0', 'Tuesday': '11:0-22:0', 'Wednesday': '11:0-22:0', 'Thursday': '11:0-22:0', 'Friday': '11:0-23:0', 'Saturday': '11:0-23:0', 'Sunday': '11:0-22:0'}"
KDiUpLL46cgoiWIM_UyR6g,Sushi Bomb,Pittsburgh,PA,40.45254310000001,-80.16027270000002,4.0,142,1,"HasTV,RestaurantsTakeOut,GoodForKids,WheelchairAccessible,BusinessAcceptsCreditCards,RestaurantsTableService,RestaurantsGoodForGroups","Steakhouses, Sushi Bars, Restaurants, Japanese","{'Monday': '16:30-21:30', 'Tuesday': '16:30-21:30', 'Wednesday': '16:30-21:30', 'Thursday': '16:30-21:30', 'Friday': '16:30-22:30', 'Saturday': '11:0-22:30', 'Sunday': '12:0-21:30'}"
6okGKL2PA7kkc-GjZzNHnA,Johnny's Italian Steakhouse,Middleton,WI,43.09372929999999,-89.5267453,3.5,225,1,"RestaurantsTakeOut,Caters,BikeParking,RestaurantsGoodForGroups,RestaurantsReservations,HasTV,GoodForKids,OutdoorSeating,BusinessAcceptsCreditCards,RestaurantsTableService","Steakhouses, Restaurants, Italian","{'Monday': '11:0-22:0', 'Tuesday': '11:0-22:0', 'Wednesday': '11:0-22:0', 'Thursday': '11:0-22:0', 'Friday': '11:0-23:0', 'Saturday': '11:0-23:0', 'Sunday': '10:0-21:0'}"
kkl0Jnord6laHQGkgZxG1Q,Applebee's Grill + Bar,Streetsboro,OH,41.238928,-81.34999,3.0,31,1,"RestaurantsTakeOut,RestaurantsGoodForGroups,BusinessAcceptsCreditCards,GoodForKids,HappyHour,HasTV,RestaurantsTableService","American (Traditional), Steakhouses, Nightlife, Sports Bars, Burgers, Bars, Restaurants","{'Monday': '0:0-0:0', 'Tuesday': '11:0-21:0', 'Wednesday': '11:0-0:0', 'Thursday': '11:0-0:0', 'Friday': '11:0-1:0', 'Saturday': '11:0-1:0', 'Sunday': '11:0-0:0'}"
eHgKGBAl8o3VCBi4YrQ3FQ,Applebee's Grill + Bar,Avon,OH,41.4631492,-82.016425,3.0,16,1,"RestaurantsTakeOut,BikeParking,RestaurantsGoodForGroups,HasTV,BusinessAcceptsCreditCards,GoodForKids,HappyHour,RestaurantsTableService,RestaurantsDelivery","Bars, Chicken Wings, Restaurants, Nightlife, Sports Bars, Steakhouses, American (Traditional), Burgers, Salad","{'Monday': '0:0-0:0', 'Tuesday': '11:0-21:0', 'Wednesday': '11:0-0:0', 'Thursday': '11:0-0:0', 'Friday': '11:0-1:0', 'Saturday': '11:0-1:0', 'Sunday': '11:0-0:0'}"
efTPzpiSkxbgNlQOtwyVOA,Medina Steak and Seafood Company,Medina,OH,41.1389647,-81.8724508,3.0,18,0,"BusinessAcceptsCreditCards,GoodForKids,RestaurantsTakeOut,OutdoorSeating,RestaurantsReservations,HasTV","Hair Removal, Food, Steakhouses, Seafood, Restaurants, Beauty & Spas","{'Monday': '11:0-22:0', 'Tuesday': '11:0-22:0', 'Wednesday': '11:0-22:0', 'Thursday': '11:0-22:0', 'Friday': '11:0-23:0', 'Saturday': '15:0-23:0', 'Sunday': '16:0-21:0'}"
WpOMfnH8hvUOENVNn9xMsQ,John Q's Steakhouse,Cleveland,OH,41.4997221553,-81.6958446545,3.5,27,0,"OutdoorSeating,RestaurantsGoodForGroups,RestaurantsReservations,BusinessAcceptsCreditCards,RestaurantsTakeOut,HasTV,HappyHour","American (Traditional), Steakhouses, Restaurants",
nRmTDIs3Gbis9aX2-v1qcw,Shula's 2 Steak & Sports,Cleveland,OH,41.3935252598,-81.6505193499,3.0,91,1,"RestaurantsGoodForGroups,HasTV,RestaurantsReservations,BusinessAcceptsCreditCards,RestaurantsTakeOut,Caters,OutdoorSeating","American (Traditional), Seafood, Steakhouses, Restaurants, Bars, Sports Bars, Nightlife","{'Monday': '0:0-0:0', 'Tuesday': '11:0-17:0', 'Wednesday': '11:0-23:0', 'Thursday': '11:0-23:0', 'Friday': '11:0-23:0', 'Saturday': '11:0-23:0', 'Sunday': '11:0-23:0'}"
0YA3RpY5KXcezPXcjdfOGQ,Pittsburgh Steak Company,Pittsburgh,PA,40.428324,-79.97809699999998,2.0,6,0,"HappyHour,RestaurantsGoodForGroups","Restaurants, Steakhouses, Sushi Bars, Seafood","{'Monday': '12:0-21:0', 'Tuesday': '12:0-21:0', 'Wednesday': '12:0-21:0', 'Thursday': '12:0-21:0', 'Friday': '11:0-22:0', 'Saturday': '11:0-22:0', 'Sunday': '16:0-20:0'}"
Luv7Vq5SbnkHyN3X1ZM9yw,Applebee's Grill + Bar,Stow,OH,41.16629,-81.477168,2.5,15,1,"BusinessAcceptsCreditCards,GoodForKids,HasTV,RestaurantsTakeOut,RestaurantsGoodForGroups,RestaurantsTableService,RestaurantsDelivery,RestaurantsReservations,HappyHour","American (Traditional), Sports Bars, Restaurants, Nightlife, Steakhouses, Burgers, Bars","{'Monday': '0:0-0:0', 'Tuesday': '11:0-21:0', 'Wednesday': '11:0-23:0', 'Thursday': '11:0-23:0', 'Friday': '11:0-0:0', 'Saturday': '11:0-0:0', 'Sunday': '11:0-23:0'}"
PV9CdNFDOX4_zWm3Sy3W8g,Quaker Steak & Lube,Middleton,WI,43.0980569322,-89.5192287862,3.0,133,0,"RestaurantsGoodForGroups,BusinessAcceptsCreditCards,GoodForKids,RestaurantsDelivery,BikeParking,RestaurantsReservations,OutdoorSeating,RestaurantsTakeOut,HappyHour,Caters,HasTV","Burgers, Bars, Nightlife, Restaurants, Chicken Wings, American (Traditional), Steakhouses","{'Monday': '11:0-22:0', 'Tuesday': '11:0-22:0', 'Wednesday': '11:0-22:0', 'Thursday': '11:0-22:0', 'Friday': '11:0-23:0', 'Saturday': '10:30-23:0', 'Sunday': '11:0-21:0'}"
8-EVsgJWjva29XMuVW2gPA,Nouveau Bistro & Lounge,Concord,OH,41.6647396,-81.24140809999999,4.0,53,1,"RestaurantsReservations,Caters,BusinessAcceptsCreditCards,HasTV,OutdoorSeating,RestaurantsTakeOut,HappyHour,RestaurantsGoodForGroups,WheelchairAccessible,GoodForKids,RestaurantsTableService","American (Traditional), American (New), Bars, Seafood, Restaurants, Steakhouses, Nightlife","{'Monday': '17:0-22:0', 'Tuesday': '17:0-22:0', 'Wednesday': '17:0-22:0', 'Thursday': '17:0-22:0', 'Friday': '17:0-23:0', 'Saturday': '17:0-23:0'}"
Rii85bzYKGC9P0zOyAem6A,Texas Roadhouse,Brooklyn,OH,41.4246092,-81.7383189,3.5,116,1,"BusinessAcceptsCreditCards,RestaurantsTakeOut,HasTV,GoodForKids,RestaurantsGoodForGroups,HappyHour","Restaurants, Steakhouses, American (Traditional), Barbeque","{'Monday': '16:0-22:0', 'Tuesday': '16:0-22:0', 'Wednesday': '16:0-22:0', 'Thursday': '16:0-22:0', 'Friday': '16:0-23:0', 'Saturday': '11:30-23:0', 'Sunday': '11:30-23:0'}"
yYHdC09T718YaF0KYb6rpg,LongHorn Steakhouse,Solon,OH,41.3958031,-81.4633444,3.0,62,1,"RestaurantsTakeOut,HasTV,GoodForKids,RestaurantsGoodForGroups,RestaurantsTableService,BusinessAcceptsCreditCards","Barbeque, Steakhouses, American (Traditional), Restaurants","{'Monday': '11:0-22:0', 'Tuesday': '11:0-22:0', 'Wednesday': '11:0-22:0', 'Thursday': '11:0-22:0', 'Friday': '11:0-23:0', 'Saturday': '11:0-23:0', 'Sunday': '11:0-22:0'}"
6aZlyyCp6l4xmjIu0E8_WQ,LongHorn Steakhouse,Avon,OH,41.467212449899996,-82.011351143,3.5,8,1,"HasTV,WheelchairAccessible,BusinessAcceptsCreditCards,RestaurantsTakeOut,RestaurantsTableService","American (Traditional), Barbeque, Restaurants, Steakhouses","{'Monday': '11:0-22:0', 'Tuesday': '11:0-22:0', 'Wednesday': '11:0-22:0', 'Thursday': '11:0-22:0', 'Friday': '11:0-23:0', 'Saturday': '11:0-23:0', 'Sunday': '11:0-22:0'}"
VobZRj98tDH7AaojYJD8Jg,Applebee's Grill + Bar,Murrysville,PA,40.422538,-79.661546,3.0,22,1,"GoodForKids,BusinessAcceptsCreditCards,HasTV,RestaurantsTakeOut,RestaurantsTableService,HappyHour,RestaurantsGoodForGroups,RestaurantsReservations,BikeParking","American (Traditional), Nightlife, Sports Bars, Restaurants, American (New), Burgers, Chicken Wings, Steakhouses, Bars","{'Monday': '0:0-0:0', 'Tuesday': '11:0-20:0', 'Wednesday': '11:0-0:0', 'Thursday': '11:0-0:0', 'Friday': '11:0-1:0', 'Saturday': '11:0-1:0', 'Sunday': '11:0-0:0'}"
VVPwQdO6g9DHCgdBCIlBsw,Applebee's Grill + Bar,Strongsville,OH,41.312317,-81.823672,3.0,30,1,"RestaurantsTakeOut,GoodForKids,BusinessAcceptsCreditCards,HasTV,RestaurantsGoodForGroups,RestaurantsReservations,BikeParking,HappyHour,RestaurantsTableService","Bars, Chicken Wings, Sports Bars, Nightlife, Restaurants, American (Traditional), Steakhouses, Burgers","{'Monday': '0:0-0:0', 'Tuesday': '11:0-21:0', 'Wednesday': '11:0-0:0', 'Thursday': '11:0-0:0', 'Friday': '11:0-1:0', 'Saturday': '11:0-1:0', 'Sunday': '11:0-0:0'}"
NXERVbjRdwe0Deg4d_fVlA,Koto Ramen,Champaign,IL,40.110827,-88.231612,2.0,30,0,"Caters,BikeParking,RestaurantsTakeOut,BusinessAcceptsCreditCards,HasTV,RestaurantsDelivery,GoodForKids,RestaurantsGoodForGroups","Sushi Bars, Asian Fusion, Steakhouses, Restaurants, Ramen, Japanese","{'Monday': '11:0-21:30', 'Tuesday': '11:0-21:30', 'Wednesday': '11:0-21:30', 'Thursday': '11:0-21:30', 'Friday': '11:0-22:30', 'Saturday': '11:0-22:30', 'Sunday': '11:0-21:30'}"
VYpXvGPkx2k0lZlGry3HQw,Coach's Club,Cross Plains,WI,43.1142554,-89.6586769,3.5,28,1,"HasTV,OutdoorSeating,GoodForKids,RestaurantsReservations,BusinessAcceptsCreditCards,RestaurantsTakeOut,RestaurantsGoodForGroups","Nightlife, American (Traditional), Bars, Restaurants, Steakhouses, Sports Bars, Breakfast & Brunch","{'Monday': '7:0-22:0', 'Tuesday': '7:0-22:0', 'Wednesday': '7:0-22:0', 'Thursday': '7:0-22:0', 'Friday': '7:0-23:0', 'Saturday': '7:0-23:0'}"
cOAjHOGcmXWJEd1Xo3xt0w,XO Seafood & Oysters,Beachwood,OH,41.462926,-81.47059499999997,3.5,33,0,"HasTV,WheelchairAccessible,RestaurantsTableService,BusinessAcceptsCreditCards,RestaurantsReservations,RestaurantsGoodForGroups,OutdoorSeating","Seafood, Restaurants, Steakhouses","{'Monday': '17:0-23:0', 'Tuesday': '17:0-23:0', 'Wednesday': '17:0-23:0', 'Thursday': '17:0-23:0', 'Friday': '17:0-23:0', 'Saturday': '17:0-23:0'}"
mJbrw3Y3NOjCKj2I5t8YsA,Hellriegel's Inn,Painesville,OH,41.6937211,-81.2846589,2.5,18,1,"GoodForKids,BusinessAcceptsCreditCards,OutdoorSeating,RestaurantsReservations,RestaurantsTakeOut,RestaurantsGoodForGroups,HasTV,BikeParking","Venues & Event Spaces, American (New), Restaurants, Steakhouses, Party & Event Planning, Caterers, Event Planning & Services","{'Monday': '11:30-22:0', 'Tuesday': '11:30-22:0', 'Wednesday': '11:30-22:0', 'Thursday': '11:30-22:0', 'Friday': '11:30-23:0', 'Saturday': '11:30-23:0', 'Sunday': '10:0-22:0'}"
X0UQortyd6N6zFBVisY_gw,Feiler's,Madison,WI,43.036741,-89.45473299999998,3.5,9,0,"RestaurantsTakeOut,GoodForKids,RestaurantsReservations,BusinessAcceptsCreditCards,BikeParking,RestaurantsGoodForGroups","American (New), Bars, Nightlife, Steakhouses, Seafood, Pubs, American (Traditional), Fish & Chips, Restaurants, Supper Clubs","{'Monday': '11:0-1:0', 'Tuesday': '11:0-1:0', 'Wednesday': '11:0-1:0', 'Thursday': '11:0-1:0', 'Friday': '11:0-1:0', 'Saturday': '11:0-1:0'}"
iEYCU5LV6FIr3kpvYltYrw,Cabin Club,Westlake,OH,41.460555600000006,-81.958732,4.0,146,1,"HasTV,RestaurantsReservations,RestaurantsTakeOut,HappyHour,RestaurantsGoodForGroups,BikeParking,BusinessAcceptsCreditCards","Restaurants, Steakhouses, Food, Bars, Nightlife, American (New), Beer, Wine & Spirits, Seafood","{'Monday': '11:30-22:0', 'Tuesday': '11:30-22:0', 'Wednesday': '11:30-22:0', 'Thursday': '11:30-22:0', 'Friday': '11:30-23:0', 'Saturday': '16:0-23:0', 'Sunday': '16:0-21:0'}"
cpRiIxqubDa4JV58ZR7-cg,Pittsburgh Steak Company,Pittsburgh,PA,40.428324,-79.97809699999998,2.5,71,0,"RestaurantsReservations,HasTV,RestaurantsGoodForGroups,BikeParking,BusinessAcceptsCreditCards,RestaurantsTakeOut,GoodForKids","Latin American, Steakhouses, Restaurants","{'Monday': '11:0-22:0', 'Tuesday': '11:0-22:0', 'Wednesday': '11:0-22:0', 'Thursday': '11:0-22:0', 'Friday': '11:0-23:0', 'Saturday': '11:0-23:0', 'Sunday': '15:0-21:0'}"
NXTsT01IVpKYPpa_1L-Rlw,Applebee's Grill + Bar,Madison,WI,43.052315,-89.474307,2.0,67,0,"BusinessAcceptsCreditCards,RestaurantsTakeOut,HasTV,RestaurantsGoodForGroups,BikeParking,GoodForKids,RestaurantsDelivery,HappyHour,RestaurantsReservations","Burgers, Sports Bars, Nightlife, Bars, Steakhouses, American (New), Restaurants, American (Traditional)","{'Monday': '11:0-23:0', 'Tuesday': '11:0-0:0', 'Wednesday': '11:0-0:0', 'Thursday': '11:0-0:0', 'Friday': '11:0-1:0', 'Saturday': '11:0-1:0', 'Sunday': '11:0-23:0'}"
mNsjRWm99TFmssgKJX_kyg,Great Scott Tavern,Euclid,OH,41.608624,-81.528842,4.0,83,1,"BusinessAcceptsCreditCards,HasTV,RestaurantsTableService,BikeParking,GoodForKids,WheelchairAccessible,RestaurantsReservations,CoatCheck,OutdoorSeating,HappyHour,RestaurantsGoodForGroups","Steakhouses, Bars, Nightlife, American (Traditional), Restaurants, Comfort Food","{'Tuesday': '16:0-22:0', 'Wednesday': '16:0-22:0', 'Thursday': '16:0-22:0', 'Friday': '16:0-23:0', 'Saturday': '16:0-23:0'}"
sGTMmemilgAl1tbP0aqc6w,Fitzgerald's,Middleton,WI,43.10859310000001,-89.5111557,2.5,39,0,"GoodForKids,RestaurantsGoodForGroups,BusinessAcceptsCreditCards,RestaurantsTakeOut,HasTV,BikeParking,RestaurantsReservations","Restaurants, Steakhouses, Barbeque","{'Monday': '10:0-21:0', 'Tuesday': '10:0-21:0', 'Wednesday': '10:0-21:0', 'Thursday': '10:0-21:0', 'Friday': '10:0-21:0', 'Saturday': '10:0-21:0', 'Sunday': '10:0-21:0'}"
88_7allgDYlxedC9jP1j6w,Applebee's Grill + Bar,Willoughby,OH,41.606407,-81.437956,2.0,37,1,"HasTV,RestaurantsGoodForGroups,BusinessAcceptsCreditCards,GoodForKids,RestaurantsReservations,RestaurantsTakeOut,BikeParking,HappyHour,RestaurantsDelivery,RestaurantsTableService","American (New), Nightlife, Sports Bars, Chicken Wings, Restaurants, Steakhouses, Bars, Burgers, American (Traditional)","{'Monday': '0:0-0:0', 'Tuesday': '11:0-21:0', 'Wednesday': '11:0-0:0', 'Thursday': '11:0-0:0', 'Friday': '11:0-1:0', 'Saturday': '11:0-1:0', 'Sunday': '11:0-0:0'}"
cAX-srNrvlifjfov_jpQ1w,Texas de Brazil,Pittsburgh,PA,40.4342885,-80.0052397,4.0,295,1,"OutdoorSeating,RestaurantsReservations,BikeParking,BusinessAcceptsCreditCards,RestaurantsTakeOut,GoodForKids,WheelchairAccessible,RestaurantsTableService,RestaurantsGoodForGroups,HasTV,Caters,RestaurantsDelivery,HappyHour","Venues & Event Spaces, Event Planning & Services, Restaurants, Brazilian, Steakhouses","{'Monday': '17:0-21:30', 'Tuesday': '17:0-21:30', 'Wednesday': '17:0-21:30', 'Thursday': '17:0-21:30', 'Friday': '17:0-22:0', 'Saturday': '16:0-22:0', 'Sunday': '16:0-21:0'}"
HsAVVdyrzSPORCrpHbMg9g,Nineteen10,Kent,OH,41.1521348,-81.3561211,3.5,12,1,"RestaurantsGoodForGroups,RestaurantsReservations,BikeParking,BusinessAcceptsCreditCards,HasTV,GoodForKids,OutdoorSeating,WheelchairAccessible,RestaurantsTableService,HappyHour","Cocktail Bars, Steakhouses, Nightlife, Bars, Restaurants, American (New), Lounges","{'Monday': '16:0-22:0', 'Tuesday': '16:0-22:0', 'Wednesday': '16:0-22:0', 'Thursday': '16:0-22:0', 'Friday': '16:0-23:0', 'Saturday': '16:0-23:0', 'Sunday': '16:0-22:0'}"
RPe_cSOxq_qkG-LbxBlOyw,Hyde Park Prime Steakhouse,Pittsburgh,PA,40.446175,-80.0082771,4.0,223,1,"RestaurantsReservations,BusinessAcceptsCreditCards,RestaurantsGoodForGroups,BikeParking,HasTV,HappyHour","Restaurants, Steakhouses","{'Monday': '0:0-0:0', 'Tuesday': '16:0-0:0', 'Wednesday': '16:30-22:0', 'Thursday': '16:30-22:0', 'Friday': '16:30-23:0', 'Saturday': '16:30-23:0', 'Sunday': '16:0-21:0'}"
CLSRz9E-HmQRDwV2_smoDA,Ichiban Hibachi Steakhouse,Pittsburgh,PA,40.4879535,-79.8869153,3.5,100,1,"HasTV,RestaurantsReservations,RestaurantsTableService,BusinessAcceptsCreditCards,RestaurantsTakeOut,RestaurantsGoodForGroups,WheelchairAccessible,GoodForKids,HappyHour","Sushi Bars, Steakhouses, Japanese, Restaurants","{'Monday': '16:30-21:15', 'Tuesday': '16:30-21:15', 'Wednesday': '16:30-21:15', 'Thursday': '16:30-21:15', 'Friday': '16:30-22:15', 'Saturday': '13:0-22:15', 'Sunday': '12:0-20:45'}"
KBBXaD0FXDTpFuTuSJ6yHA,Applebee's Grill + Bar,Pittsburgh,PA,40.429457,-79.811206,2.5,29,1,"BikeParking,GoodForKids,RestaurantsGoodForGroups,HasTV,RestaurantsTakeOut,BusinessAcceptsCreditCards,HappyHour,RestaurantsTableService","Sports Bars, Chicken Wings, Bars, Sandwiches, Nightlife, Restaurants, Steakhouses, American (Traditional), Burgers","{'Monday': '0:0-0:0', 'Tuesday': '11:0-20:0', 'Wednesday': '11:0-0:0', 'Thursday': '11:0-0:0', 'Friday': '11:0-1:0', 'Saturday': '11:0-1:0', 'Sunday': '11:0-0:0'}"
Vj1_2pERP4QRALtERvXFqw,Porter's Steakhouse,Beachwood,OH,41.460381,-81.492778,3.5,7,0,BusinessAcceptsCreditCards,"Restaurants, Steakhouses, Seafood",
LwyHsVK0koh-N-FwqY1N1w,Osso Farm Restaurant,Chardon,OH,41.622191,-81.157344,3.5,13,1,"WheelchairAccessible,OutdoorSeating,DogsAllowed,BusinessAcceptsCreditCards,RestaurantsTableService,RestaurantsReservations,HasTV,HappyHour","American (New), Restaurants, Desserts, Food, Farmers Market, Steakhouses, Local Flavor","{'Monday': '0:0-0:0', 'Wednesday': '11:0-15:0', 'Thursday': '16:0-22:0', 'Friday': '11:0-22:0', 'Saturday': '11:0-22:0', 'Sunday': '11:0-14:0'}"
axGP6FXAZlBdmdN9juu1tQ,"Miami Nights Grill, Bar, & Lounge",Westlake,OH,41.474456,-81.90065799999998,2.5,26,0,"Caters,OutdoorSeating,RestaurantsReservations,HasTV,RestaurantsTakeOut,WheelchairAccessible,HappyHour,GoodForDancing,BusinessAcceptsCreditCards,RestaurantsTableService,RestaurantsGoodForGroups","Steakhouses, Seafood, Restaurants, Nightlife, Dance Clubs","{'Tuesday': '17:0-22:0', 'Friday': '17:0-3:0', 'Saturday': '17:0-3:0', 'Sunday': '13:0-20:0'}"
6keyv1LcbzdD8MCrRaA0nQ,Outback Steakhouse,Madison,WI,43.06588720000001,-89.5239951,2.5,78,1,"RestaurantsTakeOut,OutdoorSeating,RestaurantsReservations,BusinessAcceptsCreditCards,GoodForKids,Caters,HasTV,RestaurantsGoodForGroups,RestaurantsTableService,BikeParking,RestaurantsDelivery","Steakhouses, Restaurants","{'Monday': '11:0-22:0', 'Tuesday': '11:0-22:0', 'Wednesday': '11:0-22:0', 'Thursday': '11:0-22:0', 'Friday': '11:0-22:30', 'Saturday': '11:0-22:30', 'Sunday': '11:0-21:0'}"
qLy2F9EzCsFYIKd40OJvZA,Red The Steakhouse,Pittsburgh,PA,40.44141389999999,-79.9947082,3.0,58,0,"Caters,RestaurantsReservations,HasTV,RestaurantsTakeOut,HappyHour,RestaurantsGoodForGroups,RestaurantsTableService,WheelchairAccessible,BusinessAcceptsCreditCards,OutdoorSeating","Restaurants, American (New), Seafood, Steakhouses","{'Monday': '11:0-22:0', 'Tuesday': '11:0-22:0', 'Wednesday': '11:0-22:0', 'Thursday': '11:0-22:0', 'Friday': '11:0-0:0', 'Saturday': '16:0-0:0', 'Sunday': '17:0-21:0'}"
x_AmiOc8DPAyHe5VeoDYEw,Applebee's Grill + Bar,Pittsburgh,PA,40.426319,-79.88890400000003,2.5,34,1,"RestaurantsTableService,WheelchairAccessible,GoodForKids,RestaurantsTakeOut,HasTV,HappyHour,RestaurantsGoodForGroups,BusinessAcceptsCreditCards,RestaurantsDelivery","Steakhouses, Bars, American (Traditional), Nightlife, Sports Bars, Burgers, Restaurants","{'Monday': '0:0-0:0', 'Tuesday': '11:0-20:0', 'Wednesday': '11:0-0:0', 'Thursday': '11:0-0:0', 'Friday': '11:0-1:0', 'Saturday': '11:0-1:0', 'Sunday': '11:0-0:0'}"
fROpvJ_V9q6dAXbi4VwtoA,The Capital Grille,Lyndhurst,OH,41.502243,-81.5014604,4.0,131,1,"CoatCheck,BikeParking,HappyHour,WheelchairAccessible,RestaurantsReservations,RestaurantsTableService,BusinessAcceptsCreditCards,RestaurantsGoodForGroups,HasTV,RestaurantsTakeOut","Wine Bars, Nightlife, Steakhouses, Bars, American (Traditional), Seafood, Restaurants","{'Monday': '11:30-22:0', 'Tuesday': '11:30-22:0', 'Wednesday': '11:30-22:0', 'Thursday': '11:0-21:0', 'Friday': '11:30-23:0', 'Saturday': '17:0-23:0', 'Sunday': '17:0-21:0'}"
WwQ0sr3wDk2jCMre_3mS7A,Big Red's Steaks,Madison,WI,43.07333610000001,-89.396349,3.5,17,0,"RestaurantsTakeOut,HasTV,GoodForKids,BusinessAcceptsCreditCards,RestaurantsDelivery,RestaurantsGoodForGroups","Restaurants, Steakhouses","{'Monday': '11:0-23:0', 'Tuesday': '11:0-0:0', 'Wednesday': '11:0-3:30', 'Thursday': '11:0-3:30', 'Friday': '11:0-3:30', 'Saturday': '11:0-3:30'}"
z9raV7X7cMhGhsOP-bxr7A,Wasabi Japanese Steakhouse,Independence,OH,41.4001282,-81.66209980000002,3.5,186,1,"GoodForKids,RestaurantsTakeOut,RestaurantsGoodForGroups,RestaurantsReservations,OutdoorSeating,BusinessAcceptsCreditCards,HappyHour,WheelchairAccessible,HasTV","Sushi Bars, Steakhouses, Restaurants, Japanese","{'Monday': '16:30-21:30', 'Tuesday': '16:30-21:30', 'Wednesday': '16:30-21:30', 'Thursday': '16:30-21:30', 'Friday': '16:30-22:30', 'Saturday': '14:0-22:30', 'Sunday': '12:0-20:30'}"
uDOVASe87LwFFl3Wau5AXg,The Lot at Edgewater,Oakmont,PA,40.5134185854,-79.843872169,3.5,88,1,"OutdoorSeating,BusinessAcceptsCreditCards,HasTV,RestaurantsGoodForGroups,GoodForKids,HappyHour,RestaurantsReservations","Food, Breakfast & Brunch, Diners, Coffee & Tea, Steakhouses, Cigar Bars, Bars, Restaurants, Nightlife, Sandwiches","{'Monday': '16:0-22:0', 'Tuesday': '16:0-22:0', 'Wednesday': '16:0-22:0', 'Thursday': '16:0-22:0', 'Friday': '16:0-22:0', 'Saturday': '16:0-22:0', 'Sunday': '16:0-22:0'}"
QqbZA4r5g1vCbOxOAKJgWg,Tessaro's,Pittsburgh,PA,40.462808,-79.9506473,4.0,442,1,"HasTV,GoodForKids,RestaurantsTakeOut,BusinessAcceptsCreditCards,BikeParking,RestaurantsGoodForGroups","Burgers, Steakhouses, American (Traditional), Restaurants","{'Monday': '11:0-23:0', 'Tuesday': '11:0-23:0', 'Wednesday': '11:0-23:0', 'Thursday': '11:0-23:0', 'Friday': '11:0-23:0', 'Saturday': '11:0-23:0'}"
1p6qHrapvuKpbZGLT9qskw,El Patio,Champaign,IL,40.08182670000001,-88.296002,3.5,43,1,"RestaurantsTakeOut,RestaurantsDelivery,RestaurantsGoodForGroups,BikeParking,OutdoorSeating,GoodForKids,BusinessAcceptsCreditCards,Caters,HappyHour,RestaurantsTableService","Mexican, Restaurants, Caterers, Event Planning & Services, Steakhouses, Salad","{'Monday': '11:0-21:0', 'Tuesday': '11:0-21:0', 'Wednesday': '11:0-21:0', 'Thursday': '11:0-21:0', 'Friday': '11:0-22:30', 'Saturday': '11:0-22:30', 'Sunday': '11:0-21:0'}"
CpNMXASiwtJv5eCDf0n63g,Alexander's Steakhouse,Champaign,IL,40.136796,-88.245076,3.0,81,1,"BusinessAcceptsCreditCards,RestaurantsReservations,RestaurantsGoodForGroups,RestaurantsTakeOut,GoodForKids,HasTV,BikeParking","Steakhouses, Seafood, Restaurants","{'Monday': '16:0-21:0', 'Tuesday': '16:0-21:0', 'Wednesday': '16:0-21:0', 'Thursday': '16:0-21:0', 'Friday': '16:0-22:0', 'Saturday': '11:0-22:0', 'Sunday': '11:0-21:0'}"
jqBUVAWJRJ6QIGXVuhdVvw,Cadillac Ranch,Pittsburgh,PA,40.4394024356,-80.1478385925,2.5,210,1,"BusinessAcceptsCreditCards,OutdoorSeating,RestaurantsTakeOut,Caters,GoodForKids,RestaurantsReservations,RestaurantsGoodForGroups,BikeParking,HasTV,HappyHour,RestaurantsDelivery","American (Traditional), Restaurants, Breakfast & Brunch, Steakhouses","{'Monday': '11:0-0:0', 'Tuesday': '11:0-0:0', 'Wednesday': '11:0-0:0', 'Thursday': '11:0-0:0', 'Friday': '11:0-2:0', 'Saturday': '11:0-2:0', 'Sunday': '11:0-0:0'}"
oq9bF1KUzSldObMSQ_aalQ,Quaker Steak & Lube,Valley View,OH,41.40071500000001,-81.62562199999998,3.0,137,1,"GoodForKids,BikeParking,OutdoorSeating,BusinessAcceptsCreditCards,RestaurantsGoodForGroups,HasTV,Caters,DriveThru,RestaurantsTakeOut,RestaurantsReservations,HappyHour,RestaurantsDelivery","Chicken Wings, Nightlife, American (Traditional), American (New), Restaurants, Steakhouses, Burgers, Bars","{'Monday': '0:0-0:0', 'Tuesday': '11:0-17:0', 'Wednesday': '11:0-22:0', 'Thursday': '11:0-22:0', 'Friday': '11:0-23:0', 'Saturday': '11:0-23:0', 'Sunday': '11:0-22:0'}"
NmGY7zhoEUqO_0KxvBocTw,Local Tavern,Painesville,OH,41.7284579,-81.2564865,3.5,53,1,"BusinessAcceptsCreditCards,GoodForKids,RestaurantsGoodForGroups,RestaurantsTakeOut,BikeParking,OutdoorSeating,RestaurantsTableService,RestaurantsReservations,HasTV","Breakfast & Brunch, Seafood, Restaurants, American (Traditional), Burgers, Steakhouses, Sushi Bars, Sandwiches","{'Monday': '11:0-23:0', 'Tuesday': '11:0-23:0', 'Wednesday': '11:0-23:0', 'Thursday': '11:0-23:0', 'Friday': '11:0-0:0', 'Saturday': '11:0-0:0'}"
foQBU09EoYrJpokEz-Ueug,C-Town Grill & Bar,Broadview Heights,OH,41.313369,-81.685682,3.5,3,0,"BusinessAcceptsCreditCards,RestaurantsGoodForGroups","Steakhouses, Nightlife, Dive Bars, American (Traditional), Restaurants, Sports Bars, Bars",
AEUzqUECmLCrPkIS9ryDCw,Applebee's Grill + Bar,Lyndhurst,OH,41.519648,-81.475151,2.5,37,1,"RestaurantsTakeOut,BikeParking,GoodForKids,BusinessAcceptsCreditCards,RestaurantsGoodForGroups,HasTV,HappyHour,RestaurantsTableService,RestaurantsDelivery","American (Traditional), Restaurants, Chicken Wings, Bars, Nightlife, Sports Bars, Burgers, Steakhouses","{'Monday': '0:0-0:0', 'Tuesday': '11:0-21:0', 'Wednesday': '11:0-0:0', 'Thursday': '11:0-0:0', 'Friday': '11:0-1:0', 'Saturday': '11:0-1:0', 'Sunday': '11:0-0:0'}"
-bHpvkmiFzm_swHLYsGiqw,Ken Stewart's Grille,Akron,OH,41.1133044,-81.57861120000003,4.0,116,1,"BusinessAcceptsCreditCards,OutdoorSeating,RestaurantsReservations,RestaurantsGoodForGroups,HasTV,RestaurantsTakeOut,Caters,HappyHour","Steakhouses, Seafood, Restaurants","{'Monday': '0:0-0:0', 'Tuesday': '11:0-22:0', 'Wednesday': '11:0-22:0', 'Thursday': '11:0-22:0', 'Friday': '11:0-22:0', 'Saturday': '11:0-22:0', 'Sunday': '12:0-17:0'}"
nv1XdkWviHXO7N6mK8O1yg,Don's Lighthouse,Cleveland,OH,41.484518,-81.746095,3.5,158,1,"RestaurantsGoodForGroups,RestaurantsTakeOut,HasTV,RestaurantsReservations,BusinessAcceptsCreditCards,BikeParking,RestaurantsTableService,HappyHour","Seafood, Restaurants, American (New), Steakhouses","{'Monday': '11:30-23:0', 'Tuesday': '11:30-23:0', 'Wednesday': '11:30-23:0', 'Thursday': '11:30-23:0', 'Friday': '11:30-0:0', 'Saturday': '17:0-0:0', 'Sunday': '16:0-21:30'}"
6IZuuJdMqjNVTvOVRxoJ-Q,The Wooden Nickel,North Huntingdon,PA,40.330275,-79.74271800000002,3.0,27,0,"HasTV,RestaurantsGoodForGroups,HappyHour,BusinessAcceptsCreditCards,RestaurantsReservations,RestaurantsTakeOut,RestaurantsTableService","Seafood, American (Traditional), Lounges, Nightlife, Steakhouses, American (New), Bars, Restaurants","{'Monday': '11:0-23:0', 'Tuesday': '11:0-23:0', 'Wednesday': '11:0-23:0', 'Thursday': '11:0-23:0', 'Friday': '11:0-0:0', 'Saturday': '11:0-0:0', 'Sunday': '11:0-21:0'}"
c3FFDloejdmsPZti7wjR0g,Texas Roadhouse,Elyria,OH,41.38917100000001,-82.10636600000002,3.0,43,1,"GoodForKids,BusinessAcceptsCreditCards,RestaurantsTakeOut,HasTV,RestaurantsGoodForGroups","American (Traditional), Barbeque, Restaurants, Steakhouses","{'Monday': '16:0-22:0', 'Tuesday': '16:0-22:0', 'Wednesday': '16:0-22:0', 'Thursday': '16:0-22:0', 'Friday': '15:0-23:0', 'Saturday': '11:30-23:0', 'Sunday': '11:30-21:30'}"
p26WM22RrRvkyEztJd57ag,Urban Roadhouse,Mentor,OH,41.6740925,-81.3247251,3.5,38,0,"OutdoorSeating,RestaurantsReservations,RestaurantsGoodForGroups,RestaurantsTakeOut,RestaurantsTableService,GoodForKids,BikeParking,BusinessAcceptsCreditCards,HasTV","Steakhouses, Restaurants","{'Monday': '15:0-22:0', 'Tuesday': '15:0-22:0', 'Wednesday': '15:0-22:0', 'Thursday': '15:0-22:0', 'Friday': '12:0-22:30', 'Saturday': '12:0-22:30', 'Sunday': '12:0-21:0'}"
xSgXMxqfA9VXGHYb9NC9vg,The Flying Rib,Lakewood,OH,41.4771228,-81.77295759999998,3.5,25,1,"RestaurantsTakeOut,RestaurantsGoodForGroups,OutdoorSeating,HasTV,BusinessAcceptsCreditCards,BikeParking","Dive Bars, Bars, Restaurants, American (Traditional), Nightlife, Steakhouses","{'Monday': '11:0-2:30', 'Tuesday': '11:0-2:30', 'Wednesday': '11:0-2:30', 'Thursday': '11:0-2:30', 'Friday': '11:0-2:30', 'Saturday': '11:0-2:30', 'Sunday': '11:0-2:30'}"
_dcX-gXs3VxTBmURWdnTOw,Buck & Honeys,Sun Prairie,WI,43.199587,-89.226091,3.5,217,1,"BikeParking,GoodForKids,RestaurantsGoodForGroups,OutdoorSeating,BusinessAcceptsCreditCards,RestaurantsTakeOut,HappyHour,HasTV,Caters,RestaurantsReservations","Breakfast & Brunch, Bars, Venues & Event Spaces, American (Traditional), Wine Bars, Nightlife, Restaurants, Steakhouses, Event Planning & Services","{'Monday': '11:0-22:0', 'Tuesday': '11:0-22:0', 'Wednesday': '11:0-22:0', 'Thursday': '11:0-22:0', 'Friday': '11:0-22:0', 'Saturday': '11:0-22:0', 'Sunday': '10:0-22:0'}"
33aNXOprvIR-rtxKTUNBbQ,LongHorn Steakhouse,Copley,OH,41.13466939999999,-81.6536064,3.5,36,1,"RestaurantsGoodForGroups,BikeParking,GoodForKids,HasTV,RestaurantsTakeOut,Caters,BusinessAcceptsCreditCards,HappyHour","Steakhouses, Restaurants, Barbeque, American (Traditional)","{'Monday': '11:0-22:0', 'Tuesday': '11:0-22:0', 'Wednesday': '11:0-22:0', 'Thursday': '11:0-22:0', 'Friday': '11:0-23:0', 'Saturday': '11:0-23:0', 'Sunday': '11:0-22:0'}"
C_-8AEMAJG6MvE3b6ou-ow,Texas Roadhouse,Pittsburgh,PA,40.333963675,-79.9448867667,3.5,37,1,"BusinessAcceptsCreditCards,RestaurantsGoodForGroups,HasTV,OutdoorSeating,RestaurantsTableService,RestaurantsTakeOut","Restaurants, Burgers, Steakhouses, Sandwiches","{'Monday': '0:0-0:0', 'Tuesday': '16:0-22:0', 'Wednesday': '16:0-22:0', 'Thursday': '16:0-22:0', 'Friday': '15:0-23:0', 'Saturday': '11:30-23:0', 'Sunday': '11:30-22:0'}"
fja2EnaSxKu1D7uctMhw-w,Red The Steakhouse,Cleveland,OH,41.4985864,-81.6895733,4.0,237,1,"RestaurantsTakeOut,OutdoorSeating,RestaurantsReservations,RestaurantsTableService,BusinessAcceptsCreditCards,Caters,WheelchairAccessible,CoatCheck,RestaurantsGoodForGroups,HasTV,HappyHour","Bars, Steakhouses, Restaurants, Event Planning & Services, Caterers, Nightlife","{'Monday': '17:0-22:0', 'Tuesday': '17:0-22:0', 'Wednesday': '17:0-22:0', 'Thursday': '17:0-23:0', 'Friday': '17:0-0:0', 'Saturday': '17:0-0:0'}"
oG5Sz7phCksWWjITJlgJNA,Outback Steakhouse,Lyndhurst,OH,41.5200109,-81.47364509999998,3.5,6,0,"GoodForKids,RestaurantsTakeOut,BusinessAcceptsCreditCards,RestaurantsGoodForGroups","Steakhouses, Restaurants","{'Monday': '16:0-22:0', 'Tuesday': '16:0-22:0', 'Wednesday': '16:0-22:0', 'Thursday': '16:0-22:0', 'Friday': '16:0-23:0', 'Saturday': '16:0-23:0', 'Sunday': '11:30-21:0'}"
GatUelEiMO2tShY16y6Zrg,Applebee's Grill + Bar,Garfield Heights,OH,41.409718,-81.619864,2.5,15,1,"RestaurantsGoodForGroups,RestaurantsTakeOut,GoodForKids,HasTV,BusinessAcceptsCreditCards,HappyHour,RestaurantsTableService,RestaurantsDelivery","Nightlife, Chicken Wings, Burgers, Bars, Steakhouses, Sports Bars, Restaurants, American (Traditional)","{'Monday': '0:0-0:0', 'Tuesday': '11:0-21:0', 'Wednesday': '11:0-0:0', 'Thursday': '11:0-0:0', 'Friday': '11:0-1:0', 'Saturday': '11:0-1:0', 'Sunday': '11:0-0:0'}"
w6F502EKMyn3ONbGT2bQxw,Pickle Bill's Lobster House,Grand River,OH,41.742281266599996,-81.2812566164,3.0,220,1,"BikeParking,GoodForKids,RestaurantsTakeOut,RestaurantsGoodForGroups,HasTV,RestaurantsReservations,Caters,OutdoorSeating,BusinessAcceptsCreditCards,HappyHour","Bars, Nightlife, Beer, Wine & Spirits, Seafood, Food, Restaurants, American (Traditional), Dive Bars, Steakhouses","{'Tuesday': '12:0-21:0', 'Wednesday': '12:0-21:0', 'Thursday': '12:0-21:0', 'Friday': '12:0-21:0', 'Saturday': '13:0-22:0', 'Sunday': '13:0-21:0'}"
wHG_iKBpUfizBFIGqoaUnQ,Fleming's Prime Steakhouse - Woodmere,Woodmere,OH,41.462988,-81.4739017,3.5,98,0,"RestaurantsGoodForGroups,BusinessAcceptsCreditCards,HasTV,RestaurantsReservations,Caters,RestaurantsTakeOut,HappyHour,OutdoorSeating","Seafood, Restaurants, Bars, Nightlife, Steakhouses, Wine Bars","{'Monday': '17:0-22:0', 'Tuesday': '17:0-22:0', 'Wednesday': '17:0-22:0', 'Thursday': '11:0-20:0', 'Friday': '17:0-23:0', 'Saturday': '17:0-23:0', 'Sunday': '16:0-21:0'}"
UCJpL9VFk3g1B2gjRlLy_g,Ditka's Restaurant,Pittsburgh,PA,40.448472,-80.163196,3.5,245,1,"RestaurantsReservations,RestaurantsGoodForGroups,HasTV,BusinessAcceptsCreditCards,Caters,HappyHour,RestaurantsTakeOut,WheelchairAccessible,RestaurantsTableService","American (New), Steakhouses, Restaurants, Seafood","{'Monday': '11:0-22:0', 'Tuesday': '11:0-22:0', 'Wednesday': '11:0-22:0', 'Thursday': '11:0-22:0', 'Friday': '11:0-22:0', 'Saturday': '9:0-22:0', 'Sunday': '9:0-21:0'}"
QYcsP3e-HRQYC4Iw6zbyqw,Charleys Philly Steaks,Elyria,OH,41.3475989366,-82.06750778520001,2.5,11,1,"RestaurantsDelivery,RestaurantsTakeOut","Restaurants, Fast Food, Steakhouses","{'Monday': '10:0-22:0', 'Tuesday': '10:0-22:0', 'Wednesday': '10:0-22:0', 'Thursday': '10:0-22:0', 'Friday': '10:0-22:0', 'Saturday': '10:0-22:0', 'Sunday': '10:0-22:0'}"
PeATTp15Y_ExaN6mR1dmKw,Quaker Steak & Lube,Pittsburgh,PA,40.4505157938,-80.1756812708,3.0,127,1,"BusinessAcceptsCreditCards,RestaurantsGoodForGroups,Caters,GoodForKids,OutdoorSeating,RestaurantsReservations,RestaurantsTakeOut,BikeParking,HasTV,RestaurantsDelivery,HappyHour","Restaurants, American (Traditional), Steakhouses, Chicken Wings, Nightlife, Sports Bars, Bars","{'Monday': '0:0-0:0', 'Tuesday': '11:0-22:0', 'Wednesday': '11:0-23:0', 'Thursday': '11:0-23:0', 'Friday': '11:0-0:0', 'Saturday': '11:0-0:0', 'Sunday': '11:0-23:0'}"
S7ECG2HNltSWFo1FcFTwFQ,Outback Steakhouse,Pittsburgh,PA,40.331151,-80.068668,3.0,45,0,"GoodForKids,Caters,RestaurantsReservations,RestaurantsDelivery,RestaurantsTakeOut,BusinessAcceptsCreditCards,RestaurantsGoodForGroups,HasTV,BikeParking","Restaurants, Steakhouses","{'Monday': '16:0-22:0', 'Tuesday': '16:0-22:0', 'Wednesday': '16:0-22:0', 'Thursday': '16:0-22:0', 'Friday': '16:0-23:0', 'Saturday': '11:0-23:0', 'Sunday': '11:0-21:0'}"
weWbz-uCwB9_tHMrSGZAZQ,LongHorn Steakhouse,Independence,OH,41.40035579999999,-81.6626427,3.5,59,1,"HasTV,RestaurantsTakeOut,BusinessAcceptsCreditCards,RestaurantsGoodForGroups,GoodForKids,HappyHour,OutdoorSeating","Barbeque, Restaurants, American (Traditional), Steakhouses","{'Monday': '11:0-22:0', 'Tuesday': '11:0-22:0', 'Wednesday': '11:0-22:0', 'Thursday': '11:0-22:0', 'Friday': '11:0-23:0', 'Saturday': '11:0-23:0', 'Sunday': '11:0-22:0'}"
Occo0_pOXAUG-eL6gazeGQ,Applebee's Grill + Bar,Cleveland,OH,41.461461,-81.689881,2.0,38,1,"RestaurantsTakeOut,RestaurantsGoodForGroups,GoodForKids,BusinessAcceptsCreditCards,HasTV,RestaurantsTableService,HappyHour,WheelchairAccessible,RestaurantsDelivery","Sports Bars, Bars, Nightlife, Chicken Wings, American (Traditional), Restaurants, Steakhouses, Burgers","{'Monday': '0:0-0:0', 'Tuesday': '11:0-21:0', 'Wednesday': '11:0-0:0', 'Thursday': '11:0-0:0', 'Friday': '11:0-1:0', 'Saturday': '11:0-1:0', 'Sunday': '11:0-0:0'}"
530DtHanJc-S-rNh7dtoXg,George's Chop House,Madison,WI,43.0819164,-89.5234428,3.0,3,0,"BusinessAcceptsCreditCards,RestaurantsReservations,GoodForKids,RestaurantsGoodForGroups","Restaurants, Italian, Steakhouses",
h_UvnQfe1cuVICly_kIqHg,Johnny Delmonico's Steakhouse,Madison,WI,43.07402070000001,-89.3813538,4.0,148,1,"RestaurantsTakeOut,RestaurantsReservations,BusinessAcceptsCreditCards,OutdoorSeating,RestaurantsGoodForGroups,BikeParking,RestaurantsDelivery,HasTV,Caters,HappyHour","Seafood, Steakhouses, Restaurants","{'Monday': '16:30-21:0', 'Tuesday': '16:30-21:0', 'Wednesday': '16:30-21:0', 'Thursday': '16:30-21:0', 'Friday': '16:30-22:0', 'Saturday': '16:30-22:0', 'Sunday': '16:30-21:0'}"
EXIZwIxLoiPDJs-oKzgaKw,Steak n Shake,Cleveland,OH,41.4496327,-81.81786340000002,2.0,60,0,"BusinessAcceptsCreditCards,RestaurantsGoodForGroups,RestaurantsTakeOut,BikeParking,HappyHour,GoodForKids,DriveThru","Steakhouses, American (New), Burgers, Fast Food, Breakfast & Brunch, Restaurants, Diners, American (Traditional)","{'Monday': '0:0-0:0', 'Tuesday': '0:0-0:0', 'Wednesday': '0:0-0:0', 'Thursday': '0:0-0:0', 'Friday': '0:0-0:0', 'Saturday': '0:0-0:0', 'Sunday': '0:0-0:0'}"
YohEZMYpKrf-3fyPASKLew,Texas Roadhouse,Madison,WI,43.133746,-89.298753,3.5,133,1,"GoodForKids,BusinessAcceptsCreditCards,RestaurantsGoodForGroups,HasTV,HappyHour,RestaurantsTakeOut,BikeParking,Caters","Restaurants, Steakhouses, American (Traditional), Barbeque","{'Monday': '16:0-22:0', 'Tuesday': '16:0-22:0', 'Wednesday': '16:0-22:0', 'Thursday': '16:0-22:0', 'Friday': '15:0-23:0', 'Saturday': '11:0-23:0', 'Sunday': '11:0-21:0'}"
UtMq05YrY37Hb9Oe4z0dYA,Srnit Restaurant,Medina,OH,41.13894060000001,-81.8723983,4.5,34,1,"RestaurantsTakeOut,RestaurantsReservations,RestaurantsTableService,HasTV","Cocktail Bars, Restaurants, Community Service/Non-Profit, Seafood, Gastropubs, Local Services, Steakhouses, American (New), Nightlife, Brasseries, Wine Bars, Beer, Wine & Spirits, Bars, French, Food","{'Monday': '0:0-0:0', 'Tuesday': '17:0-21:0', 'Wednesday': '17:0-21:0', 'Thursday': '17:0-21:0', 'Friday': '17:0-22:0', 'Saturday': '17:0-22:0'}"
p5TW1LnrPWYnZr2SNe6aiA,Quaker Steak & Lube,Medina,OH,41.1632528157,-81.8629302084,3.0,36,1,"BikeParking,OutdoorSeating,BusinessAcceptsCreditCards,RestaurantsTakeOut,RestaurantsGoodForGroups,HasTV,Caters,GoodForKids,RestaurantsDelivery","Steakhouses, American (Traditional), Chicken Wings, Restaurants, Food","{'Monday': '0:0-0:0', 'Tuesday': '11:0-17:0', 'Wednesday': '11:0-22:0', 'Thursday': '11:0-22:0', 'Friday': '11:0-22:0', 'Saturday': '11:0-22:0', 'Sunday': '11:0-22:0'}"
KK5Hvy2JNjXpdO_zHA_LCA,Prime Quarter Steak House,Madison,WI,43.1151959,-89.32817320000002,4.0,31,0,"BusinessAcceptsCreditCards,RestaurantsGoodForGroups,RestaurantsReservations,OutdoorSeating,HappyHour","Steakhouses, Restaurants, Nightlife",
gVrOjfdnijDwxivLTHiBAg,Applebee's Grill + Bar,Lorain,OH,41.428561,-82.204543,2.5,22,1,"BusinessAcceptsCreditCards,RestaurantsReservations,RestaurantsTakeOut,RestaurantsGoodForGroups,GoodForKids,HasTV,HappyHour,RestaurantsTableService","Sports Bars, Chicken Wings, American (Traditional), Bars, Steakhouses, Burgers, Nightlife, Restaurants","{'Monday': '0:0-0:0', 'Tuesday': '11:0-21:0', 'Wednesday': '11:0-0:0', 'Thursday': '11:0-0:0', 'Friday': '11:0-1:0', 'Saturday': '11:0-1:0', 'Sunday': '11:0-0:0'}"
RfM6jDn16Qf8eVz2vJTdbw,Henry Wahner's Restaurant & Lounge,Kent,OH,41.1544421,-81.33603000000002,3.5,59,1,"RestaurantsGoodForGroups,BikeParking,GoodForKids,RestaurantsTakeOut,HasTV","German, Steakhouses, Restaurants","{'Tuesday': '16:0-20:0', 'Wednesday': '16:0-20:0', 'Thursday': '16:0-20:0', 'Friday': '16:0-21:0', 'Saturday': '16:0-21:0'}"
wHy5uBfkwEAbf-6UbZT6lw,The Captain's Club,Eastlake,OH,41.6420348,-81.4394437,3.0,27,0,"RestaurantsReservations,RestaurantsGoodForGroups,Caters,HasTV,RestaurantsTakeOut,OutdoorSeating,BusinessAcceptsCreditCards,GoodForKids,BikeParking,WheelchairAccessible,HappyHour","Sports Bars, Restaurants, Sandwiches, Bars, Nightlife, Burgers, Steakhouses","{'Monday': '11:0-23:0', 'Tuesday': '11:0-23:0', 'Wednesday': '11:0-23:0', 'Thursday': '11:0-23:0', 'Friday': '11:0-0:0', 'Saturday': '11:0-0:0', 'Sunday': '12:0-18:0'}"
2U3KaC0sIFeugvSm0c2fJA,LongHorn Steakhouse,Medina,OH,41.1650605,-81.8627817,3.5,29,1,"BusinessAcceptsCreditCards,GoodForKids,HasTV,RestaurantsTakeOut,BikeParking,RestaurantsGoodForGroups","Barbeque, Steakhouses, Restaurants, American (Traditional)","{'Monday': '11:0-22:0', 'Tuesday': '11:0-22:0', 'Wednesday': '11:0-22:0', 'Thursday': '11:0-22:0', 'Friday': '11:0-23:0', 'Saturday': '11:0-23:0', 'Sunday': '11:0-22:0'}"
62b0uHo9uaSsoOMQFG55jg,Sammy's Famous Corned Beef,Pittsburgh,PA,40.4391575,-79.9989143,2.5,11,1,"RestaurantsGoodForGroups,RestaurantsTakeOut,BusinessAcceptsCreditCards,HasTV","Steakhouses, Restaurants",
p3DmeeCNz-BdijenlxGI2A,Outback Steakhouse,Monroeville,PA,40.4383688,-79.7594217,3.0,79,1,"RestaurantsGoodForGroups,GoodForKids,BikeParking,HasTV,BusinessAcceptsCreditCards,RestaurantsReservations,RestaurantsDelivery,RestaurantsTakeOut,HappyHour","Restaurants, Steakhouses","{'Monday': '11:0-22:0', 'Tuesday': '11:0-22:0', 'Wednesday': '11:0-22:0', 'Thursday': '11:0-22:0', 'Friday': '11:0-23:0', 'Saturday': '11:0-23:0', 'Sunday': '11:0-21:0'}"
30ibZa6RLsrdhmCUeoS7tQ,Texas Roadhouse,Pittsburgh,PA,40.5620812755,-80.0259171054,3.5,82,1,"GoodForKids,RestaurantsTableService,HasTV,Caters,BikeParking,RestaurantsTakeOut,WheelchairAccessible,RestaurantsGoodForGroups,BusinessAcceptsCreditCards","Sandwiches, American (Traditional), Burgers, Barbeque, Restaurants, Steakhouses","{'Monday': '16:0-22:0', 'Tuesday': '16:0-22:0', 'Wednesday': '16:0-22:0', 'Thursday': '16:0-22:0', 'Friday': '15:0-23:0', 'Saturday': '11:30-23:0', 'Sunday': '11:30-22:0'}"
0gbi6kYiAOnFwfZ_2_dXSA,Hyde Park Prime Steakhouse,Beachwood,OH,41.4632516,-81.4933324,4.0,112,1,"HasTV,RestaurantsTakeOut,RestaurantsReservations,Caters,BusinessAcceptsCreditCards,RestaurantsGoodForGroups,HappyHour","Restaurants, Steakhouses","{'Monday': '0:0-0:0', 'Tuesday': '16:0-0:0', 'Wednesday': '17:0-22:0', 'Thursday': '17:0-22:0', 'Friday': '17:0-22:30', 'Saturday': '17:0-22:30', 'Sunday': '17:0-20:0'}"
LJwS9epPXXvzel7bZ616Gg,Marble Room Steaks and Raw Bar,Cleveland,OH,41.5003939675,-81.68881464100001,4.0,272,1,"RestaurantsReservations,HappyHour,BusinessAcceptsCreditCards,WheelchairAccessible,HasTV,RestaurantsGoodForGroups,RestaurantsTableService","Sushi Bars, Restaurants, Steakhouses, Seafood","{'Monday': '0:0-0:0', 'Tuesday': '11:30-22:0', 'Wednesday': '11:30-22:0', 'Thursday': '11:30-22:0', 'Friday': '11:30-23:0', 'Saturday': '16:30-23:0'}"
3rlMsFJE8MjHE4K2ABkQFw,Tavolo 72,Middleburg Heights,OH,41.3699534,-81.8256366,3.5,15,1,"RestaurantsDelivery,BusinessAcceptsCreditCards,RestaurantsTakeOut,HappyHour,RestaurantsReservations,WheelchairAccessible,RestaurantsTableService,RestaurantsGoodForGroups,BikeParking,HasTV","Steakhouses, Italian, Restaurants","{'Monday': '6:0-2:0', 'Tuesday': '6:0-2:0', 'Wednesday': '6:0-2:0', 'Thursday': '6:0-2:0', 'Friday': '6:0-2:0', 'Saturday': '7:0-2:0', 'Sunday': '7:0-2:0'}"
Ef0WLuzSbnSuIKu5i-Z2_g,Outback Steakhouse,Moon Township,PA,40.4573706,-80.1791796,3.5,47,1,"BusinessAcceptsCreditCards,RestaurantsReservations,RestaurantsTakeOut,RestaurantsGoodForGroups,GoodForKids,HasTV,OutdoorSeating","Restaurants, Steakhouses","{'Monday': '16:0-22:0', 'Tuesday': '16:0-22:0', 'Wednesday': '16:0-22:0', 'Thursday': '16:0-22:0', 'Friday': '11:0-23:0', 'Saturday': '11:0-23:0', 'Sunday': '11:0-21:0'}"
PXJkqZGaC5qxhJTVQodN_w,Harry's Steakhouse & Banquet Center,Independence,OH,41.4083787,-81.6408735,3.5,114,1,"Caters,RestaurantsReservations,GoodForKids,HasTV,RestaurantsTakeOut,OutdoorSeating,RestaurantsGoodForGroups,BusinessAcceptsCreditCards,RestaurantsTableService,WheelchairAccessible,HappyHour","Restaurants, Steakhouses, Bars, Caterers, Seafood, Lounges, Nightlife, Event Planning & Services, Buffets","{'Monday': '15:30-22:0', 'Tuesday': '15:30-22:0', 'Wednesday': '15:30-22:0', 'Thursday': '15:30-22:0', 'Friday': '15:30-23:0', 'Saturday': '15:0-23:0', 'Sunday': '11:0-20:0'}"
DzVv_g6xsLbMh66HtiZK3A,Coal Hill Steakhouse at Grandview Saloon,Pittsburgh,PA,40.4381076,-80.0185368,2.0,65,1,"RestaurantsReservations,BusinessAcceptsCreditCards,OutdoorSeating,RestaurantsTakeOut,HasTV,RestaurantsTableService","Restaurants, Steakhouses",
wyAKcdWQCXudHY30M0Tq4Q,Applebee's Grill + Bar,North Olmsted,OH,41.418781,-81.901834,3.0,24,1,"BikeParking,OutdoorSeating,HasTV,RestaurantsGoodForGroups,GoodForKids,RestaurantsTakeOut,BusinessAcceptsCreditCards,RestaurantsReservations,HappyHour,RestaurantsTableService,RestaurantsDelivery","Steakhouses, Restaurants, American (Traditional), Burgers, Sports Bars, Chicken Wings, Bars, Nightlife","{'Monday': '0:0-0:0', 'Tuesday': '11:0-21:0', 'Wednesday': '11:0-0:0', 'Thursday': '11:0-0:0', 'Friday': '11:0-1:0', 'Saturday': '11:0-1:0', 'Sunday': '11:0-0:0'}"
6RmdqLK1H5aodAA8t7Yl2A,LongHorn Steakhouse,West Homestead,PA,40.404148,-79.918819,3.0,110,1,"GoodForKids,BusinessAcceptsCreditCards,BikeParking,RestaurantsGoodForGroups,HasTV,RestaurantsTakeOut","Restaurants, American (Traditional), Steakhouses, Barbeque","{'Monday': '11:0-22:0', 'Tuesday': '11:0-22:0', 'Wednesday': '11:0-22:0', 'Thursday': '11:0-22:0', 'Friday': '11:0-23:0', 'Saturday': '11:0-23:0', 'Sunday': '11:0-22:0'}"
1HtxtLaFgTeerAuF9Q5jRQ,Lone Star Steakhouse,West Mifflin,PA,40.3502247038,-79.9411557,3.0,20,0,"RestaurantsTakeOut,HasTV,BusinessAcceptsCreditCards,GoodForKids,RestaurantsGoodForGroups","American (Traditional), Restaurants, Seafood, Steakhouses","{'Monday': '11:0-22:0', 'Tuesday': '11:0-22:0', 'Wednesday': '11:0-22:0', 'Thursday': '11:0-22:0', 'Friday': '11:0-23:0', 'Saturday': '11:0-23:0', 'Sunday': '11:0-22:0'}"
vOY6w1Q45Iod8sy2c8zetg,"Red, the Steakhouse",Orange Village,OH,41.4524011,-81.486308,4.0,193,1,"OutdoorSeating,RestaurantsReservations,BikeParking,BusinessAcceptsCreditCards,RestaurantsDelivery,HasTV,RestaurantsGoodForGroups,Caters,HappyHour,RestaurantsTakeOut","Steakhouses, Restaurants","{'Monday': '11:30-22:0', 'Tuesday': '11:30-22:0', 'Wednesday': '11:30-22:0', 'Thursday': '11:30-22:0', 'Friday': '11:30-22:0', 'Saturday': '16:0-0:0'}"
TNV-nSWQ_pN6wrMwAgxSkA,Mc Govern's Club and Restaurant,Sun Prairie,WI,43.1824466,-89.22751690000003,3.0,16,0,"BusinessAcceptsCreditCards,RestaurantsReservations,OutdoorSeating,RestaurantsGoodForGroups,RestaurantsTakeOut,GoodForKids,HasTV,BikeParking","Restaurants, Nightlife, Sandwiches, Bars, Steakhouses, Burgers, Pubs, American (Traditional)","{'Monday': '11:0-1:30', 'Tuesday': '11:0-1:30', 'Wednesday': '11:0-1:30', 'Thursday': '11:0-1:30', 'Friday': '11:0-2:0', 'Saturday': '11:0-2:0', 'Sunday': '11:0-1:30'}"
XTB-U4e2MCDzyRQ1EpPtLA,Lone Star Steakhouse,North Olmsted,OH,41.415037700000006,-81.8995466,2.0,41,0,"RestaurantsGoodForGroups,RestaurantsReservations,OutdoorSeating,BusinessAcceptsCreditCards,GoodForKids,HasTV,RestaurantsTakeOut,HappyHour","Restaurants, Steakhouses, Seafood, American (Traditional)","{'Monday': '11:0-22:0', 'Tuesday': '11:0-22:0', 'Wednesday': '11:0-22:0', 'Thursday': '11:0-22:0', 'Friday': '11:0-23:0', 'Saturday': '11:0-23:0', 'Sunday': '11:0-22:0'}"
STr9xDBZ9OOvgRZSJTbshQ,Brown Derby Roadhouse,Akron,OH,41.1140412,-81.4659925,1.5,7,0,"HasTV,GoodForKids,BusinessAcceptsCreditCards,OutdoorSeating","Restaurants, Steakhouses, Barbeque, Diners",
hP2DOm7E2H4P7MOS7XN_SQ,Hamilton Walker's,Champaign,IL,40.117491,-88.243875,3.5,170,1,"WheelchairAccessible,CoatCheck,Caters,HasTV,RestaurantsDelivery,RestaurantsTakeOut,BikeParking,HappyHour,RestaurantsReservations,OutdoorSeating,BusinessAcceptsCreditCards,RestaurantsTableService,RestaurantsGoodForGroups","Beer, Wine & Spirits, Seafood, Restaurants, Steakhouses, Food, Nightlife, Bars","{'Monday': '0:0-0:0', 'Tuesday': '11:0-21:0', 'Wednesday': '11:0-21:0', 'Thursday': '11:0-22:0', 'Friday': '11:0-22:0', 'Saturday': '10:0-22:0', 'Sunday': '10:0-21:0'}"
jUddhNjGAE6W7MQKaUEZ4Q,Ryan's,Champaign,IL,40.136306,-88.2619969,2.0,21,0,"RestaurantsGoodForGroups,BikeParking,GoodForKids,RestaurantsReservations,BusinessAcceptsCreditCards,RestaurantsTakeOut","American (New), Breakfast & Brunch, Buffets, Steakhouses, Restaurants","{'Monday': '10:45-20:30', 'Tuesday': '10:45-20:30', 'Wednesday': '10:45-20:30', 'Thursday': '10:45-20:30', 'Friday': '10:45-21:0', 'Saturday': '8:0-21:0', 'Sunday': '8:0-20:30'}"
jWlErd3TOkO4C0MgP8eDvw,Bella Vista,Pittsburgh,PA,40.4379704,-80.0183184,3.0,62,0,"RestaurantsGoodForGroups,HasTV,BikeParking,RestaurantsReservations,RestaurantsTakeOut,BusinessAcceptsCreditCards,CoatCheck,WheelchairAccessible,Caters,RestaurantsTableService,HappyHour","Nightlife, Wine Bars, Restaurants, Italian, Bars, Steakhouses",
2zx0Pt5OeHhjAZoNRqYTog,Fuegos - Steak Tapas Vegan,Madison,WI,43.0797595,-89.369608,3.5,216,1,"RestaurantsDelivery,WheelchairAccessible,RestaurantsGoodForGroups,RestaurantsTableService,HappyHour,BusinessAcceptsCreditCards,RestaurantsTakeOut,BikeParking,OutdoorSeating,RestaurantsReservations,DogsAllowed,GoodForKids,Caters","Steakhouses, Restaurants, Spanish, Tapas Bars, Tapas/Small Plates, Vegetarian, Vegan","{'Monday': '0:0-0:0', 'Saturday': '10:0-23:0'}"
xgs1m9icwBbXmOmFhDQtjw,Kosar's Wood-Fired Grill,Northfield,OH,41.34846629999999,-81.52432759999998,2.5,12,1,,"Restaurants, Steakhouses","{'Monday': '17:0-21:0', 'Tuesday': '17:0-21:0', 'Wednesday': '17:0-21:0', 'Thursday': '17:0-21:0', 'Friday': '17:0-22:0', 'Saturday': '16:0-22:0', 'Sunday': '16:0-21:0'}"
OHKLSUanPcaAQMYkHDBdSw,Applebee's Grill + Bar,Cuyahoga Falls,OH,41.118674,-81.476827,2.0,25,1,"GoodForKids,HasTV,RestaurantsGoodForGroups,BusinessAcceptsCreditCards,RestaurantsTakeOut,RestaurantsTableService,HappyHour,RestaurantsDelivery","Nightlife, Sports Bars, Burgers, American (Traditional), Bars, Restaurants, Steakhouses","{'Monday': '0:0-0:0', 'Tuesday': '11:0-21:0', 'Wednesday': '11:0-0:0', 'Thursday': '11:0-0:0', 'Friday': '11:0-1:0', 'Saturday': '11:0-1:0', 'Sunday': '11:0-0:0'}"
LWk7Q5CTjpK-k_TfXdbApQ,Brasa Grill,Cleveland,OH,41.4988193,-81.70082190000002,3.0,159,0,"RestaurantsGoodForGroups,BusinessAcceptsCreditCards,RestaurantsReservations,OutdoorSeating","Brazilian, Restaurants, Steakhouses","{'Monday': '16:0-22:0', 'Tuesday': '16:0-22:0', 'Wednesday': '16:0-22:0', 'Thursday': '16:0-22:0', 'Friday': '16:0-23:0', 'Saturday': '16:0-23:0', 'Sunday': '16:0-21:0'}"
gtGn5hnHRAnGgfCiTcdj0A,Hibachi Japanese Steakhouse,Fairview Park,OH,41.4411018,-81.86085279999998,2.5,67,1,"RestaurantsGoodForGroups,GoodForKids,RestaurantsTakeOut,BikeParking,BusinessAcceptsCreditCards,RestaurantsReservations,RestaurantsTableService,HasTV","Steakhouses, Japanese, Restaurants, Sushi Bars","{'Monday': '16:30-21:30', 'Tuesday': '16:30-21:30', 'Wednesday': '16:30-21:30', 'Thursday': '16:30-21:30', 'Friday': '16:30-22:30', 'Saturday': '16:30-22:30', 'Sunday': '12:0-21:30'}"
JKAYcu_1UPHTyquCZCKPaw,Strip,Avon,OH,41.453573,-82.033843,4.0,241,1,"BusinessAcceptsCreditCards,RestaurantsReservations,OutdoorSeating,RestaurantsGoodForGroups,HasTV,RestaurantsTableService,Caters,HappyHour,RestaurantsTakeOut","American (Traditional), Restaurants, Steakhouses","{'Tuesday': '15:0-21:0', 'Wednesday': '15:0-21:0', 'Thursday': '15:0-21:0', 'Friday': '15:0-22:0', 'Saturday': '15:0-22:0', 'Sunday': '15:0-20:0'}"
uWL8onvbR7WFJU7BGZ1a2A,Fiore's Italian Steakhouse,Copley,OH,41.1335789823,-81.65361205159999,2.0,23,0,"GoodForKids,OutdoorSeating,BusinessAcceptsCreditCards,RestaurantsReservations,RestaurantsTakeOut,RestaurantsGoodForGroups,HasTV","Steakhouses, Restaurants, Italian","{'Monday': '7:0-22:0', 'Tuesday': '7:0-22:0', 'Wednesday': '7:0-22:0', 'Thursday': '7:0-22:0', 'Friday': '7:0-23:0', 'Saturday': '7:0-23:0', 'Sunday': '7:0-22:0'}"
H-wMVXewXX8DmY7uF2pwYA,Cork's and Stubby's,Amherst,OH,41.39816550000001,-82.2264716,3.0,30,0,"RestaurantsGoodForGroups,BikeParking,RestaurantsReservations,OutdoorSeating,RestaurantsTakeOut,HasTV,Caters,BusinessAcceptsCreditCards,HappyHour","American (New), Seafood, Restaurants, Steakhouses","{'Monday': '11:0-0:0', 'Tuesday': '11:0-0:0', 'Wednesday': '11:0-0:0', 'Thursday': '11:0-0:0', 'Friday': '11:0-1:0', 'Saturday': '11:0-1:0'}"
PKjdnTWQSygpOjlWl8VzrQ,Whistlers Kitchen & Bar Wood-Fired,Avon,OH,41.4535031,-82.03302240000002,4.0,52,0,"RestaurantsTakeOut,HasTV,OutdoorSeating,BusinessAcceptsCreditCards,BikeParking,RestaurantsGoodForGroups,GoodForKids","Italian, Ice Cream & Frozen Yogurt, Seafood, Restaurants, Pizza, Food, Steakhouses","{'Tuesday': '16:0-22:0', 'Wednesday': '16:0-22:0', 'Thursday': '16:0-22:0', 'Friday': '16:0-22:0', 'Saturday': '16:0-22:0', 'Sunday': '16:0-21:0'}"
_vu7qhaHRo0k8gnkojZD_g,Fujiyama Steakhouse & Sushi Bar,Avon,OH,41.4683699,-82.0155941,3.0,73,1,"HasTV,BusinessAcceptsCreditCards,GoodForKids,RestaurantsTakeOut,RestaurantsReservations,RestaurantsGoodForGroups,OutdoorSeating,Caters","Japanese, Restaurants, Sushi Bars, Steakhouses","{'Monday': '16:0-21:30', 'Tuesday': '16:0-21:30', 'Wednesday': '16:0-21:30', 'Thursday': '16:0-21:30', 'Friday': '16:0-23:30', 'Saturday': '12:0-23:30', 'Sunday': '12:0-20:30'}"
YbgEzqyH-nngJMZO0dY0iA,Clearview Restaurant & Pub,Akron,OH,41.2019564,-81.63835759999998,3.5,44,1,"OutdoorSeating,HasTV,RestaurantsTakeOut,GoodForKids,RestaurantsGoodForGroups,BusinessAcceptsCreditCards,RestaurantsReservations,BikeParking","Nightlife, Pubs, Bars, Restaurants, Steakhouses","{'Monday': '15:0-22:0', 'Tuesday': '15:0-22:0', 'Wednesday': '15:0-22:0', 'Thursday': '15:0-22:0', 'Friday': '15:0-23:0', 'Saturday': '10:0-23:0', 'Sunday': '10:0-16:0'}"
9BQGpsIRhs9cRHuGh9xuJw,Toko Japanese Steak House,Kent,OH,41.1554880172,-81.3269842509,3.5,64,1,"RestaurantsTableService,BusinessAcceptsCreditCards,RestaurantsGoodForGroups,HasTV,RestaurantsReservations,GoodForKids,RestaurantsTakeOut","Steakhouses, Ramen, Japanese, Restaurants, Asian Fusion","{'Monday': '11:0-21:30', 'Tuesday': '11:0-21:30', 'Wednesday': '11:0-21:30', 'Thursday': '11:0-21:30', 'Friday': '11:0-22:0', 'Saturday': '11:0-22:0', 'Sunday': '12:0-21:0'}"
LFdlt3HzTGGvzgfwzYjCVw,Pacers Sports Bar & Grille,Mentor,OH,41.675955,-81.315428,3.5,23,0,"OutdoorSeating,RestaurantsTableService,BusinessAcceptsCreditCards,RestaurantsGoodForGroups,WheelchairAccessible,HasTV,RestaurantsReservations,GoodForKids,HappyHour,RestaurantsTakeOut","American (Traditional), Seafood, Sports Bars, Restaurants, Burgers, Bars, Steakhouses, American (New), Nightlife","{'Monday': '0:0-0:0', 'Tuesday': '11:0-23:0', 'Wednesday': '11:0-23:0', 'Thursday': '11:0-23:0', 'Friday': '11:0-1:0', 'Saturday': '12:0-1:0', 'Sunday': '12:0-21:0'}"
bJGtHxejEJboO2o_DtaPEQ,Applebee's Grill + Bar,McMurray,PA,40.267996,-80.128261,3.0,22,1,"HasTV,GoodForKids,RestaurantsGoodForGroups,BusinessAcceptsCreditCards,RestaurantsTakeOut,HappyHour,RestaurantsTableService","Restaurants, Bars, Steakhouses, Burgers, Sports Bars, Nightlife, American (Traditional)","{'Monday': '0:0-0:0', 'Tuesday': '11:0-20:0', 'Wednesday': '11:0-0:0', 'Thursday': '11:0-0:0', 'Friday': '11:0-1:0', 'Saturday': '11:0-1:0', 'Sunday': '11:0-0:0'}"
eROPfqFhqHh2wDvz-5O9QQ,Ichiban Hibachi Steakhouse & Sushi Bar,Canonsburg,PA,40.269682,-80.12658,3.5,32,1,"RestaurantsTakeOut,BusinessAcceptsCreditCards,RestaurantsTableService,GoodForKids,RestaurantsGoodForGroups,RestaurantsReservations,HasTV,Caters,HappyHour","Asian Fusion, Steakhouses, Restaurants, Sushi Bars, Japanese","{'Monday': '11:0-21:30', 'Tuesday': '11:0-21:30', 'Wednesday': '11:0-21:30', 'Thursday': '11:0-21:30', 'Friday': '11:0-22:30', 'Saturday': '13:0-22:30', 'Sunday': '12:0-21:0'}"
UqbnR83EtBOWK6unSZkeLg,Fogo de Cho Brazilian Steakhouse - Pittsburgh,Pittsburgh,PA,40.4408181,-79.9987274,4.0,214,1,"HasTV,RestaurantsTableService,BusinessAcceptsCreditCards,RestaurantsReservations,RestaurantsGoodForGroups,HappyHour","Steakhouses, Restaurants, Brazilian","{'Monday': '17:0-21:30', 'Tuesday': '11:0-23:0', 'Wednesday': '11:0-22:0', 'Thursday': '11:0-21:0', 'Friday': '17:0-22:0', 'Saturday': '11:0-22:0', 'Sunday': '11:0-21:0'}"
RSndNUTD8MpDQiotoTS29A,Steak N Shake,Tarentum,PA,40.569355,-79.79831800000002,2.0,13,0,"GoodForKids,RestaurantsGoodForGroups,BusinessAcceptsCreditCards,DriveThru,RestaurantsTakeOut","Steakhouses, Restaurants, Burgers, Fast Food",
3YrySY6jiAJO1N7LbjsI_Q,Bianca's Ristorante Italiano & Lounge,Brunswick,OH,41.2671388,-81.840153,2.5,33,1,"GoodForKids,OutdoorSeating,BusinessAcceptsCreditCards,RestaurantsGoodForGroups,RestaurantsTakeOut,HasTV,Caters,BikeParking,RestaurantsTableService,RestaurantsReservations,WheelchairAccessible,RestaurantsDelivery","Restaurants, Steakhouses, Italian, Seafood","{'Monday': '16:0-21:0', 'Tuesday': '16:0-21:0', 'Wednesday': '11:0-21:0', 'Thursday': '11:0-21:0', 'Friday': '11:0-22:0', 'Saturday': '16:0-22:0'}"
QT4ax7JkGZma8oMy5j8t2w,DragonFire Steakhouse,Pittsburgh,PA,40.357621,-80.0503804,2.5,29,0,"RestaurantsReservations,GoodForKids,HasTV,BusinessAcceptsCreditCards,RestaurantsTakeOut,RestaurantsGoodForGroups","Restaurants, Japanese, Steakhouses","{'Monday': '11:30-22:0', 'Tuesday': '11:30-22:0', 'Wednesday': '11:30-22:0', 'Thursday': '11:30-22:0', 'Friday': '11:30-23:0', 'Saturday': '11:30-23:0', 'Sunday': '12:0-22:0'}"
3jKaeGaw_iVz1oEqpoRqsQ,Applebee's Grill + Bar,Stow,OH,41.156457,-81.407726,3.5,16,1,"RestaurantsGoodForGroups,HasTV,GoodForKids,RestaurantsTakeOut,BusinessAcceptsCreditCards,HappyHour,RestaurantsTableService","Restaurants, Nightlife, Steakhouses, Fast Food, Burgers, American (Traditional), Bars, Sports Bars","{'Monday': '0:0-0:0', 'Tuesday': '11:0-21:0', 'Wednesday': '11:0-23:0', 'Thursday': '11:0-23:0', 'Friday': '11:0-0:0', 'Saturday': '11:0-0:0', 'Sunday': '11:0-23:0'}"
tORH_LDga3t1bbuluhuxiQ,Smoky's Club,Madison,WI,43.0749956,-89.4416756,3.0,81,1,"RestaurantsGoodForGroups,BusinessAcceptsCreditCards,HasTV,RestaurantsReservations,BikeParking,RestaurantsTableService","Event Planning & Services, Nightlife, Bars, Pubs, Venues & Event Spaces, Seafood, Restaurants, Steakhouses, Diners","{'Monday': '17:0-21:0', 'Tuesday': '17:0-21:0', 'Wednesday': '17:0-21:0', 'Thursday': '17:0-21:0', 'Friday': '17:0-21:30', 'Saturday': '17:0-21:30'}"
QToLw4ijAdErQ906aqr5aw,Nemo Grille,Avon,OH,41.4521407,-82.0347739,4.5,137,1,"RestaurantsReservations,RestaurantsGoodForGroups,RestaurantsTakeOut,BusinessAcceptsCreditCards,Caters,OutdoorSeating,HasTV","Wine Bars, American (New), Restaurants, Bars, Nightlife, Steakhouses, Seafood","{'Monday': '0:0-0:0', 'Tuesday': '17:0-21:30', 'Wednesday': '17:0-21:30', 'Thursday': '17:0-21:30', 'Friday': '17:0-22:0', 'Saturday': '17:0-22:0', 'Sunday': '17:0-21:0'}"
t2O4Qx74U_IfBzDHJzvUCA,Urban Farmer,Cleveland,OH,41.5036701,-81.691598,3.5,570,1,"HasTV,OutdoorSeating,RestaurantsReservations,BusinessAcceptsCreditCards,RestaurantsGoodForGroups,RestaurantsTableService,WheelchairAccessible,HappyHour,RestaurantsDelivery,RestaurantsTakeOut,BikeParking,GoodForKids","American (Traditional), Steakhouses, American (New), Restaurants, Breakfast & Brunch","{'Monday': '7:0-22:0', 'Tuesday': '7:0-22:0', 'Wednesday': '7:0-22:0', 'Thursday': '7:0-22:0', 'Friday': '7:0-23:0', 'Saturday': '8:0-23:0', 'Sunday': '8:0-22:0'}"
JW7-UF3cdQIo-HAiK29HUQ,Palmieri's Restaurants,Plum,PA,40.451836,-79.72728029999998,4.0,17,1,"RestaurantsGoodForGroups,RestaurantsReservations,RestaurantsTakeOut,HasTV,BusinessAcceptsCreditCards,GoodForKids","Bars, Sports Bars, Italian, Event Planning & Services, Venues & Event Spaces, Restaurants, Nightlife, Steakhouses","{'Monday': '8:0-22:0', 'Tuesday': '8:0-22:0', 'Wednesday': '8:0-22:0', 'Thursday': '8:0-22:0', 'Friday': '8:0-22:0', 'Saturday': '8:0-22:0'}"
HBX4hBNcOYwAJ2kAWebtbA,Texas De Brazil,Woodmere,OH,41.4629049,-81.47998890000002,4.0,145,1,"GoodForKids,RestaurantsTableService,RestaurantsReservations,RestaurantsTakeOut,BusinessAcceptsCreditCards,RestaurantsGoodForGroups,RestaurantsDelivery,WheelchairAccessible,Caters,OutdoorSeating,HappyHour,HasTV","Steakhouses, Event Planning & Services, Venues & Event Spaces, Desserts, American (New), Restaurants, Food, Brazilian","{'Monday': '17:0-21:30', 'Tuesday': '17:0-21:30', 'Wednesday': '17:0-21:30', 'Thursday': '17:0-21:30', 'Friday': '17:0-22:0', 'Saturday': '16:0-22:0', 'Sunday': '16:0-21:0'}"
ZvEJiX8HBIForfbHOfqpmQ,Skyvue Restaurant,West Mifflin,PA,40.3505751,-79.9231862,3.5,44,1,"HasTV,OutdoorSeating,GoodForKids,BusinessAcceptsCreditCards,RestaurantsTakeOut,RestaurantsTableService,Caters,RestaurantsReservations,RestaurantsGoodForGroups","Sandwiches, Steakhouses, Restaurants, American (Traditional)","{'Monday': '11:0-0:0', 'Tuesday': '11:0-0:0', 'Wednesday': '11:0-0:0', 'Thursday': '11:0-0:0', 'Friday': '11:0-0:0', 'Saturday': '11:0-0:0'}"
Xz0HTTnKuf1BW26CmKA8CQ,Charya's,Bethel Park,PA,40.327322,-80.042015,4.0,16,0,"RestaurantsTableService,Caters,BusinessAcceptsCreditCards,GoodForKids,RestaurantsTakeOut,RestaurantsGoodForGroups,RestaurantsDelivery,RestaurantsReservations,BikeParking","Italian, Steakhouses, American (New), Restaurants, Seafood","{'Tuesday': '11:0-21:0', 'Wednesday': '11:0-21:0', 'Thursday': '11:0-21:0', 'Friday': '11:0-22:0', 'Saturday': '11:0-22:0', 'Sunday': '13:0-20:0'}"
1njD5p7-FvV8uoHzwiVYCA,LongHorn Steakhouse,Mentor,OH,41.6823019,-81.2976018,3.5,42,1,"GoodForKids,OutdoorSeating,RestaurantsTakeOut,BusinessAcceptsCreditCards,HasTV,RestaurantsGoodForGroups,RestaurantsTableService,HappyHour","Barbeque, Steakhouses, Restaurants, American (Traditional)","{'Monday': '11:0-22:0', 'Tuesday': '11:0-22:0', 'Wednesday': '11:0-22:0', 'Thursday': '11:0-22:0', 'Friday': '11:0-23:0', 'Saturday': '11:0-23:0', 'Sunday': '11:0-22:0'}"
gchI4BdZ76teMX9BsI2H-w,Maria's Family Restaurant,Euclid,OH,41.611009,-81.523539,3.0,11,1,"RestaurantsGoodForGroups,GoodForKids,HasTV,BusinessAcceptsCreditCards,RestaurantsTakeOut,BikeParking","Italian, Breakfast & Brunch, Steakhouses, Seafood, American (New), Salad, Restaurants","{'Monday': '6:0-15:0', 'Tuesday': '6:0-15:0', 'Wednesday': '6:0-15:0', 'Thursday': '6:0-15:0', 'Friday': '6:0-15:0', 'Saturday': '6:0-15:0', 'Sunday': '6:0-15:0'}"
6sCdVRtmhJgNqKh9Vx6JXw,Tavern At Twin Lakes,Kent,OH,41.1950389,-81.33785209999998,3.0,46,0,"OutdoorSeating,RestaurantsGoodForGroups,RestaurantsTakeOut,GoodForKids,BikeParking,RestaurantsReservations,BusinessAcceptsCreditCards,HasTV","Seafood, Restaurants, American (Traditional), Steakhouses","{'Monday': '17:0-21:0', 'Tuesday': '17:0-21:0', 'Wednesday': '17:0-21:0', 'Thursday': '17:0-21:0', 'Friday': '17:0-21:0', 'Saturday': '17:0-21:0', 'Sunday': '17:0-21:0'}"
qQMvHvHnVIEHaOSxTEIu9A,The Hilltop,Cross Plains,WI,43.0847455388,-89.6559139572,3.5,21,1,"GoodForKids,BusinessAcceptsCreditCards,RestaurantsTableService,RestaurantsGoodForGroups,BikeParking,WheelchairAccessible,RestaurantsReservations,HasTV,Caters,RestaurantsTakeOut","Restaurants, Steakhouses, Seafood, American (Traditional)","{'Monday': '0:0-0:0', 'Tuesday': '16:0-21:0', 'Wednesday': '16:0-21:0', 'Thursday': '16:0-21:0', 'Friday': '16:0-22:0', 'Saturday': '16:0-22:0', 'Sunday': '9:0-13:30'}"
sz6_gKcHjtcpWKIZLXV85w,"or, The Whale",Pittsburgh,PA,40.4375331903,-79.998808,4.0,294,1,"RestaurantsReservations,RestaurantsGoodForGroups,BusinessAcceptsCreditCards,RestaurantsTableService,HappyHour,HasTV,BikeParking,CoatCheck,WheelchairAccessible","Restaurants, Nightlife, American (Traditional), Bars, Seafood, Steakhouses, Breakfast & Brunch","{'Monday': '0:0-0:0', 'Tuesday': '17:0-22:0', 'Wednesday': '17:0-22:0', 'Thursday': '17:0-23:0', 'Friday': '17:0-23:0', 'Saturday': '17:0-23:0', 'Sunday': '17:0-22:0'}"
h-d71agFCi1IFWaaxPCwYA,Wise Guys Lounge & Grill,Akron,OH,41.1130118,-81.51067440000001,4.0,30,1,"BusinessAcceptsCreditCards,RestaurantsGoodForGroups,RestaurantsReservations,HasTV,RestaurantsTableService,WheelchairAccessible,RestaurantsTakeOut","American (Traditional), Steakhouses, Restaurants, Seafood","{'Tuesday': '15:0-22:0', 'Wednesday': '15:0-22:0', 'Thursday': '15:0-22:0', 'Friday': '15:0-23:0', 'Saturday': '15:0-23:0'}"
7bQU0QI_YID3MgZirZHmSg,Jekyll's Kitchen,Chagrin Falls,OH,41.4313496171,-81.3927800884,3.5,202,1,"BusinessAcceptsCreditCards,RestaurantsReservations,RestaurantsTakeOut,RestaurantsGoodForGroups,OutdoorSeating,RestaurantsTableService,BikeParking,HappyHour,HasTV","Seafood, Venues & Event Spaces, Steakhouses, Sushi Bars, Event Planning & Services, Restaurants, American (New)","{'Monday': '0:0-0:0', 'Tuesday': '16:0-0:0', 'Wednesday': '16:30-21:30', 'Thursday': '16:30-21:30', 'Friday': '16:0-22:30', 'Saturday': '14:0-22:30', 'Sunday': '14:0-20:0'}"
nTj1Yi5TyRErrP8k8H3C3g,Kavanaugh's Esquire Club,Madison,WI,43.111265,-89.363442,3.0,64,1,"RestaurantsTakeOut,RestaurantsGoodForGroups,GoodForKids,BikeParking,HasTV,BusinessAcceptsCreditCards,Caters,RestaurantsReservations,RestaurantsTableService,WheelchairAccessible,HappyHour","Seafood, Restaurants, Steakhouses, Wine Bars, Nightlife, Bars, Sports Bars, Supper Clubs","{'Monday': '11:0-22:0', 'Tuesday': '11:0-22:0', 'Wednesday': '11:0-22:0', 'Thursday': '11:0-22:0', 'Friday': '11:0-23:0', 'Saturday': '9:0-22:30', 'Sunday': '16:0-22:0'}"
TNgqPThc9_MwgSIdsZIUjQ,Delmonico's Steakhouse,Independence,OH,41.39469,-81.648719,3.5,145,1,"RestaurantsGoodForGroups,RestaurantsReservations,OutdoorSeating,RestaurantsTakeOut,HasTV,BusinessAcceptsCreditCards,HappyHour","Restaurants, Steakhouses","{'Monday': '11:0-22:0', 'Tuesday': '11:0-22:0', 'Wednesday': '11:0-22:0', 'Thursday': '11:0-22:0', 'Friday': '11:0-23:0', 'Saturday': '17:0-23:0', 'Sunday': '16:0-21:0'}"
_6b9CtXi4fQqiu2VjCVpTQ,Outback Steakhouse,Madison,WI,43.128671,-89.3063473,3.0,75,1,"RestaurantsTakeOut,OutdoorSeating,BikeParking,GoodForKids,HasTV,BusinessAcceptsCreditCards,RestaurantsGoodForGroups,RestaurantsReservations","Steakhouses, Restaurants","{'Monday': '11:0-22:0', 'Tuesday': '11:0-22:0', 'Wednesday': '11:0-22:0', 'Thursday': '11:0-22:0', 'Friday': '11:0-22:30', 'Saturday': '11:0-22:30', 'Sunday': '11:0-21:0'}"
r0DureDzsHpzs_VZem5k7g,Outback Steakhouse,Westlake,OH,41.474908,-81.8956237,3.0,65,1,"GoodForKids,RestaurantsGoodForGroups,BusinessAcceptsCreditCards,RestaurantsReservations,RestaurantsTakeOut,RestaurantsDelivery,HasTV,RestaurantsTableService","Steakhouses, Restaurants","{'Monday': '11:0-22:0', 'Tuesday': '11:0-22:0', 'Wednesday': '11:0-22:0', 'Thursday': '11:0-22:0', 'Friday': '11:0-23:0', 'Saturday': '11:0-23:0', 'Sunday': '11:0-21:0'}"
NSzhahVpI_B32snhJHM0HA,Texas Roadhouse,Champaign,IL,40.117932,-88.2810949,4.0,106,1,"RestaurantsTakeOut,RestaurantsGoodForGroups,BusinessAcceptsCreditCards,HasTV,GoodForKids,Caters","Barbeque, American (Traditional), Restaurants, Steakhouses","{'Monday': '16:0-22:0', 'Tuesday': '16:0-22:0', 'Wednesday': '16:0-22:0', 'Thursday': '16:0-22:0', 'Friday': '16:0-23:0', 'Saturday': '11:0-23:0', 'Sunday': '11:0-21:0'}"
xTID0KVkR_H2v23LsdM02A,Steak n Shake,Akron,OH,41.133571307800004,-81.643151,2.5,36,1,"RestaurantsGoodForGroups,GoodForKids,BikeParking,BusinessAcceptsCreditCards,RestaurantsTakeOut,HappyHour","Steakhouses, Burgers, American (New), Diners, Breakfast & Brunch, Restaurants, Fast Food, American (Traditional)","{'Monday': '0:0-0:0', 'Tuesday': '0:0-0:0', 'Wednesday': '0:0-0:0', 'Thursday': '0:0-0:0', 'Friday': '0:0-0:0', 'Saturday': '0:0-0:0', 'Sunday': '0:0-0:0'}"
g6aWPjcKukfK1-Po70Lhyw,Wonder Bar Steakhouse,Madison,WI,43.052432,-89.379756,3.5,139,1,"RestaurantsReservations,BikeParking,RestaurantsGoodForGroups,HappyHour,OutdoorSeating,BusinessAcceptsCreditCards,HasTV","Restaurants, Nightlife, Seafood, Bars, Steakhouses, Pubs","{'Monday': '16:0-21:0', 'Tuesday': '16:0-21:0', 'Wednesday': '16:0-21:0', 'Thursday': '16:0-21:0', 'Friday': '16:0-22:0', 'Saturday': '16:0-22:0'}"
Mb4V2aPneclZZ8BfZUjWGA,Ken Stewart's East Bank,Cleveland,OH,41.5007302384,-81.7043933334,3.5,61,0,"RestaurantsGoodForGroups,RestaurantsReservations,RestaurantsTakeOut,BusinessAcceptsCreditCards,OutdoorSeating,Caters,HasTV,BikeParking","Seafood, Restaurants, Steakhouses, Italian","{'Monday': '11:0-23:0', 'Tuesday': '11:0-23:0', 'Wednesday': '11:0-23:0', 'Thursday': '11:0-23:0', 'Friday': '11:0-23:0', 'Saturday': '17:0-23:0'}"
SNNrb5T4dn3DMq410HIpxw,Gamekeeper's Taverne,Chagrin Falls,OH,41.43171,-81.39355,3.5,92,0,"RestaurantsReservations,OutdoorSeating,HasTV,RestaurantsGoodForGroups,BikeParking,BusinessAcceptsCreditCards,RestaurantsTakeOut,HappyHour","Seafood, American (New), American (Traditional), Salad, Steakhouses, Restaurants, Sandwiches","{'Monday': '11:30-21:0', 'Tuesday': '11:30-21:0', 'Wednesday': '11:30-21:0', 'Thursday': '11:30-21:0', 'Friday': '11:30-22:0', 'Saturday': '11:30-22:0', 'Sunday': '16:0-20:0'}"
raWVzvuD8Se-nRliuuM9aw,The Original Roadhouse,Willoughby,OH,41.638932,-81.371484,3.0,9,1,"RestaurantsReservations,HasTV","Event Planning & Services, Party & Event Planning, Restaurants, Seafood, Steakhouses, American (Traditional)","{'Tuesday': '16:0-21:30', 'Wednesday': '16:0-21:30', 'Thursday': '16:0-21:30', 'Friday': '16:0-22:0', 'Saturday': '16:0-22:0'}"
bkh5o6bCzDCovSkRYBsU1w,LongHorn Steakhouse,Champaign,IL,40.1413941,-88.25847579999999,3.0,73,1,"RestaurantsGoodForGroups,HasTV,GoodForKids,BusinessAcceptsCreditCards,RestaurantsTakeOut","Restaurants, Barbeque, American (Traditional), Steakhouses","{'Monday': '11:0-22:0', 'Tuesday': '11:0-22:0', 'Wednesday': '11:0-22:0', 'Thursday': '11:0-22:0', 'Friday': '11:0-23:0', 'Saturday': '11:0-23:0', 'Sunday': '11:0-22:0'}"
_ta7UaBqMTcF25JZy_5YHQ,Applebee's Grill + Bar,Macedonia,OH,41.308429,-81.516664,2.5,23,1,"BusinessAcceptsCreditCards,RestaurantsReservations,HasTV,RestaurantsTakeOut,GoodForKids,RestaurantsGoodForGroups,BikeParking,HappyHour,RestaurantsTableService","American (Traditional), Restaurants, Sports Bars, Burgers, Steakhouses, Bars, Nightlife","{'Monday': '0:0-0:0', 'Tuesday': '11:0-21:0', 'Wednesday': '11:0-0:0', 'Thursday': '11:0-0:0', 'Friday': '11:0-1:0', 'Saturday': '11:0-1:0', 'Sunday': '11:0-0:0'}"
Im0hMcWaqWIzuBM8xILDsA,Trivs,Strongsville,OH,41.3139309,-81.819294,4.0,107,1,"OutdoorSeating,RestaurantsGoodForGroups,RestaurantsTakeOut,GoodForKids,HasTV,RestaurantsReservations,BusinessAcceptsCreditCards,HappyHour,RestaurantsTableService,BikeParking","Burgers, American (New), Restaurants, Italian, American (Traditional), Steakhouses","{'Monday': '0:0-0:0', 'Tuesday': '11:0-0:0', 'Wednesday': '11:0-0:0', 'Thursday': '11:0-0:0', 'Friday': '11:0-0:0', 'Saturday': '11:0-0:0'}"
8y2TWfFWt_OCJemAJniORQ,Shogun Japanese Steak House,Willoughby,OH,41.6234996,-81.4441874,3.5,21,0,"RestaurantsTableService,RestaurantsTakeOut,Caters,WheelchairAccessible,BusinessAcceptsCreditCards,GoodForKids,RestaurantsGoodForGroups,HasTV,RestaurantsReservations","Steakhouses, Japanese, Restaurants, Sushi Bars","{'Monday': '11:0-22:0', 'Tuesday': '11:0-22:0', 'Wednesday': '11:0-22:0', 'Thursday': '11:0-22:0', 'Friday': '11:0-22:0', 'Saturday': '11:0-22:0', 'Sunday': '12:0-22:0'}"
EKUdxxPirhQgwHI9OpY0FQ,Wasabi Japanese Steakhouse,Elyria,OH,41.397313,-82.112262,3.0,37,1,"GoodForKids,RestaurantsGoodForGroups,RestaurantsTakeOut,RestaurantsReservations,BusinessAcceptsCreditCards,HasTV,BikeParking","Steakhouses, Sushi Bars, Japanese, Restaurants",
nxAo0oDgsNlduzUuuUL4Fg,Steak n Shake,Munhall,PA,40.4134446,-79.9044468,2.0,110,0,"GoodForKids,BusinessAcceptsCreditCards,RestaurantsTakeOut,RestaurantsGoodForGroups,HappyHour,DriveThru","Steakhouses, American (New), Restaurants, Fast Food, Burgers, American (Traditional), Breakfast & Brunch, Diners","{'Monday': '0:0-0:0', 'Tuesday': '7:0-0:0', 'Wednesday': '7:0-0:0', 'Thursday': '7:0-0:0', 'Friday': '7:0-0:0', 'Saturday': '7:0-0:0', 'Sunday': '7:0-0:0'}"
4hJHSMKyKJRl50k9EM6jkA,Mantini's Woodfired,Pittsburgh,PA,40.428952,-79.98595,3.0,14,0,"BusinessAcceptsCreditCards,RestaurantsReservations,RestaurantsGoodForGroups","Steakhouses, Restaurants",
2ALi7ZYvil-BAXFa3CMUyA,Shinto Japanese Steakhouse & Sushi Bar,Strongsville,OH,41.293935,-81.835899,3.5,190,1,"BusinessAcceptsCreditCards,OutdoorSeating,RestaurantsReservations,RestaurantsGoodForGroups,GoodForKids,RestaurantsTakeOut,HasTV,Caters,HappyHour","Steakhouses, Sushi Bars, Restaurants, Japanese","{'Monday': '11:0-22:0', 'Tuesday': '11:0-22:0', 'Wednesday': '11:0-22:0', 'Thursday': '11:0-22:0', 'Friday': '11:0-23:0', 'Saturday': '12:0-23:0', 'Sunday': '14:0-21:0'}"
AplxT8Xq5C1-Edt56FNq3A,Applebee's Grill + Bar,Medina,OH,41.162787,-81.861581,1.5,9,1,"OutdoorSeating,HasTV,BikeParking,BusinessAcceptsCreditCards,GoodForKids,RestaurantsGoodForGroups,RestaurantsTableService,RestaurantsTakeOut,HappyHour","Chicken Wings, Bars, Sports Bars, Steakhouses, Restaurants, American (Traditional), Nightlife, Burgers","{'Monday': '0:0-0:0', 'Tuesday': '11:0-21:0', 'Wednesday': '11:0-0:0', 'Thursday': '11:0-0:0', 'Friday': '11:0-1:0', 'Saturday': '11:0-1:0', 'Sunday': '11:0-0:0'}"
JLbgvGM4FXh9zNP4O5ZWjQ,Meat & Potatoes,Pittsburgh,PA,40.4431445863,-80.0011037908,4.0,2001,1,"RestaurantsTakeOut,BusinessAcceptsCreditCards,BikeParking,RestaurantsReservations,RestaurantsGoodForGroups,OutdoorSeating,GoodForKids,HappyHour","Specialty Food, Meat Shops, Steakhouses, Food, Gastropubs, American (New), Restaurants","{'Monday': '17:0-23:0', 'Tuesday': '17:0-22:0', 'Wednesday': '17:0-22:0', 'Thursday': '17:0-22:0', 'Friday': '17:0-0:0', 'Saturday': '17:0-0:0', 'Sunday': '17:0-22:0'}"
ndzT1maiVwpz-7VFFzAb5Q,Eddie V's Prime Seafood,Pittsburgh,PA,40.43994,-79.996847,4.5,209,1,"BusinessAcceptsCreditCards,RestaurantsTableService,HappyHour,WheelchairAccessible,RestaurantsGoodForGroups,RestaurantsReservations","Nightlife, Bars, Lounges, Seafood, Restaurants, Steakhouses","{'Monday': '16:0-22:0', 'Tuesday': '16:0-22:0', 'Wednesday': '16:0-22:0', 'Thursday': '11:0-20:0', 'Friday': '16:0-23:0', 'Saturday': '16:0-23:0', 'Sunday': '16:0-21:0'}"
w1c_Uy60LSDiMsSjAsEqkw,Rumfish Grille,Bridgeville,PA,40.3683930071,-80.1065956659,3.0,192,0,"RestaurantsReservations,BikeParking,RestaurantsGoodForGroups,BusinessAcceptsCreditCards,OutdoorSeating,HasTV,RestaurantsTakeOut","Nightlife, Steakhouses, Seafood, Bars, Restaurants, American (Traditional)","{'Monday': '0:0-0:0', 'Tuesday': '11:30-20:0', 'Wednesday': '11:30-20:0', 'Thursday': '11:30-20:0', 'Friday': '11:30-22:0', 'Saturday': '11:30-22:0', 'Sunday': '11:30-20:0'}"
AEoWScs-gYsXSUUmDbseFg,The Cabin of Willowick,Willowick,OH,41.6291087,-81.48362990000003,3.5,79,1,"BusinessAcceptsCreditCards,OutdoorSeating,HasTV,RestaurantsReservations,Caters,RestaurantsGoodForGroups,Corkage,RestaurantsTakeOut,RestaurantsDelivery,RestaurantsTableService,HappyHour,BYOB,WheelchairAccessible","Seafood, Event Planning & Services, Sushi Bars, Party & Event Planning, Caterers, Restaurants, Steakhouses, American (Traditional), American (New), Diners","{'Monday': '11:30-21:0', 'Tuesday': '11:30-21:0', 'Wednesday': '11:30-21:0', 'Thursday': '11:30-21:0', 'Friday': '11:30-23:0', 'Saturday': '17:0-23:0', 'Sunday': '10:0-16:0'}"
y_jxvri9HK68PQD_Jw4CJA,Bull & Bird Steakhouse,Chagrin Falls,OH,41.4316593,-81.3936093,4.0,43,1,"HasTV,BusinessAcceptsCreditCards,OutdoorSeating,RestaurantsReservations,RestaurantsGoodForGroups,WheelchairAccessible,RestaurantsTableService","Steakhouses, Desserts, Food, Restaurants, Seafood","{'Monday': '0:0-0:0', 'Tuesday': '16:0-0:0', 'Wednesday': '16:30-21:30', 'Thursday': '16:30-21:30', 'Friday': '16:30-22:0', 'Saturday': '16:30-22:0'}"
JBkc2Xof8yietmHQLs62aQ,Eddie Merlot's - Pittsburgh,Pittsburgh,PA,40.440898,-80.0046248,4.0,218,1,"RestaurantsReservations,RestaurantsGoodForGroups,OutdoorSeating,WheelchairAccessible,HasTV,Caters,RestaurantsTableService,BusinessAcceptsCreditCards,RestaurantsTakeOut","Restaurants, American (Traditional), Salad, Seafood, Steakhouses","{'Monday': '11:0-22:0', 'Tuesday': '11:0-22:0', 'Wednesday': '11:0-22:0', 'Thursday': '11:0-22:0', 'Friday': '11:0-23:0', 'Saturday': '16:0-23:0', 'Sunday': '16:0-21:0'}"
cs-bfjBie4uwCW99yZmlqw,LongHorn Steakhouse,Tarentum,PA,40.5702237445,-79.7974224031,3.5,40,1,"GoodForKids,RestaurantsTakeOut,BusinessAcceptsCreditCards,RestaurantsGoodForGroups,Caters,HasTV","Barbeque, Restaurants, Steakhouses, American (Traditional)","{'Monday': '11:0-22:0', 'Tuesday': '11:0-22:0', 'Wednesday': '11:0-22:0', 'Thursday': '11:0-22:0', 'Friday': '11:0-23:0', 'Saturday': '11:0-23:0', 'Sunday': '11:0-22:0'}"
B46YpcGGZ5nBjGLzSJLVbA,Steak Escape West Towne Mall,Madison,WI,43.0584893289,-89.50497415790001,4.0,4,1,"BusinessAcceptsCreditCards,RestaurantsDelivery,RestaurantsTakeOut","Cheesesteaks, Steakhouses, Sandwiches, Fast Food, Restaurants","{'Monday': '10:0-21:0', 'Tuesday': '10:0-21:0', 'Wednesday': '10:0-21:0', 'Thursday': '10:0-21:0', 'Friday': '10:0-21:0', 'Saturday': '10:0-21:0', 'Sunday': '11:0-18:0'}"
qw6gr0f7yIuG5WCcYLQBSA,Bistro 70,Painesville,OH,41.7268783,-81.2429631,4.5,55,1,"RestaurantsReservations,RestaurantsGoodForGroups,HasTV,RestaurantsTakeOut,BusinessAcceptsCreditCards,HappyHour","Seafood, Restaurants, Asian Fusion, American (New), Steakhouses","{'Tuesday': '16:0-21:0', 'Wednesday': '16:0-21:0', 'Thursday': '16:0-22:0', 'Friday': '16:0-22:0', 'Saturday': '17:0-22:0'}"
MQXFdfDb1UjrZngnjslmhA,Outback Steakhouse,Macedonia,OH,41.312926,-81.5161822,2.5,81,1,"HasTV,BusinessAcceptsCreditCards,RestaurantsTakeOut,GoodForKids,RestaurantsDelivery,RestaurantsGoodForGroups,HappyHour","Steakhouses, Restaurants","{'Monday': '11:0-22:0', 'Tuesday': '11:0-22:0', 'Wednesday': '11:0-22:0', 'Thursday': '11:0-22:0', 'Friday': '11:0-22:30', 'Saturday': '11:0-22:30', 'Sunday': '11:0-21:0'}"
9ismhhkIPREHOo8tJi0ETA,Ruth's Chris Steak House,Middleton,WI,43.0974604,-89.5229994,3.5,118,1,"RestaurantsReservations,RestaurantsGoodForGroups,BusinessAcceptsCreditCards,HasTV,RestaurantsTableService,HappyHour","Restaurants, Steakhouses, Seafood, Lounges, Bars, Nightlife","{'Monday': '16:0-22:0', 'Tuesday': '16:0-22:0', 'Wednesday': '16:0-22:0', 'Thursday': '16:0-22:0', 'Friday': '16:0-23:0', 'Saturday': '16:0-23:0', 'Sunday': '16:0-21:0'}"
qb8TiKsNTUqq4P-u6zQLDg,Atria's Restaurant,McMurray,PA,40.265839,-80.1280336,3.5,70,1,"HasTV,GoodForKids,BusinessAcceptsCreditCards,RestaurantsGoodForGroups,RestaurantsTakeOut,OutdoorSeating,RestaurantsReservations,RestaurantsDelivery,HappyHour","Steakhouses, Sandwiches, Restaurants, Burgers, Food, Seafood, American (New)","{'Monday': '11:0-22:0', 'Tuesday': '11:0-22:0', 'Wednesday': '11:0-22:0', 'Thursday': '11:0-22:0', 'Friday': '11:0-22:0', 'Saturday': '11:0-22:0', 'Sunday': '11:0-21:0'}"
CgsUUVwL8EBqcHFxrtkFtA,Quaker Steak & Lube,Mentor,OH,41.6577255335,-81.3782529441,3.0,75,1,"OutdoorSeating,Caters,BikeParking,RestaurantsGoodForGroups,HasTV,RestaurantsTakeOut,BusinessAcceptsCreditCards,GoodForKids,HappyHour,RestaurantsReservations","American (Traditional), Restaurants, Chicken Wings, Steakhouses","{'Monday': '0:0-0:0', 'Tuesday': '11:0-17:0', 'Wednesday': '11:0-22:0', 'Thursday': '11:0-22:0', 'Friday': '11:0-23:0', 'Saturday': '11:0-23:0', 'Sunday': '11:0-22:0'}"
JMahS85NWAXQuyGLx3UlQQ,Inn Place Restaurant,Imperial,PA,40.4414503,-80.2338809,3.5,7,1,"RestaurantsGoodForGroups,BusinessAcceptsCreditCards,GoodForKids,RestaurantsReservations","Pubs, Steakhouses, Nightlife, Bars, Restaurants",
CySpYWrovIOGh7hdz9ahOQ,Dragonfly Lounge,Cleveland,OH,41.48593220000001,-81.704615,4.0,28,0,"Caters,BusinessAcceptsCreditCards,RestaurantsReservations,RestaurantsTakeOut,RestaurantsGoodForGroups,HasTV,HappyHour","Lounges, Steakhouses, Restaurants, Sushi Bars, Nightlife, Bars","{'Tuesday': '17:0-2:0', 'Wednesday': '17:0-2:0', 'Thursday': '17:0-2:0', 'Friday': '17:0-2:0', 'Saturday': '17:0-2:0', 'Sunday': '17:0-2:0'}"
jzr6jW5cQ0jpPhEo4kGMBw,LongHorn Steakhouse,Madison,WI,43.0594110063,-89.5035026245,3.5,86,1,"RestaurantsGoodForGroups,BikeParking,GoodForKids,BusinessAcceptsCreditCards,HasTV,RestaurantsTakeOut","Steakhouses, Restaurants, Barbeque, American (Traditional)","{'Monday': '11:0-22:0', 'Tuesday': '11:0-22:0', 'Wednesday': '11:0-22:0', 'Thursday': '11:0-22:0', 'Friday': '11:0-23:0', 'Saturday': '11:0-23:0', 'Sunday': '11:0-22:0'}"
k1FNfGvknWVC_GzirQThmA,Outback Steakhouse,Mentor,OH,41.6581921,-81.3644696,2.5,81,1,"GoodForKids,HasTV,BusinessAcceptsCreditCards,RestaurantsTakeOut,RestaurantsReservations,RestaurantsGoodForGroups,RestaurantsTableService,RestaurantsDelivery","Restaurants, Steakhouses","{'Monday': '11:0-22:0', 'Tuesday': '11:0-22:0', 'Wednesday': '11:0-22:0', 'Thursday': '11:0-22:0', 'Friday': '11:0-23:0', 'Saturday': '11:0-23:0', 'Sunday': '11:0-21:0'}"
